,City,Cloudiness,Country,Date,Humidity,Lat,Lng,Max Temp,Wind Speed
0,Pevek,100,RU,1576431340,98,69.7,170.27,-6.66,8.39
1,Aranos,0,NA,1576431340,21,-24.14,19.11,81.86,10.31
2,Vardo,75,US,1576431340,48,39.62,-77.74,51.01,23.04
3,Hermanus,0,ZA,1576431340,65,-34.42,19.24,62.01,5.01
4,Kodiak,90,US,1576431340,85,39.95,-94.76,24.01,6.93
5,Butaritari,100,KI,1576431341,76,3.07,172.79,83.66,7.81
6,Punta Arenas,75,CL,1576431341,76,-53.16,-70.91,50.0,23.04
7,Yumen,55,CN,1576431341,59,40.29,97.04,19.49,12.33
8,Cracow,75,US,1576431342,74,43.74,-82.82,30.99,10.29
9,Cabo San Lucas,5,MX,1576431342,56,22.89,-109.91,81.0,6.93
10,Timmins,20,CA,1576431140,77,48.48,-81.33,-2.2,9.17
11,New Norfolk,90,AU,1576431342,76,-42.78,147.06,52.0,6.93
12,Kaitangata,83,NZ,1576431343,94,-46.28,169.85,45.0,4.0
13,Jamestown,0,AU,1576431343,31,-33.21,138.6,65.05,6.46
14,Hithadhoo,100,MV,1576431344,81,-0.6,73.08,79.77,13.06
15,Am Timan,0,TD,1576431344,23,11.04,20.28,82.76,3.91
16,Bethel,1,US,1576431344,92,60.79,-161.76,30.2,11.41
17,Itarema,87,BR,1576431345,51,-2.92,-39.92,89.6,15.46
18,Tagusao,53,PH,1576431345,90,9.19,117.81,74.89,2.57
19,Bouloupari,0,NC,1576431345,82,-21.87,166.05,77.0,4.29
20,Bluff,17,AU,1576431345,86,-23.58,149.07,73.31,5.12
21,Qaanaaq,79,GL,1576431346,63,77.48,-69.36,-4.29,7.96
22,Shenjiamen,100,CN,1576431346,83,29.96,122.3,61.57,14.38
23,Port Alfred,10,ZA,1576431346,74,-33.59,26.89,61.0,7.0
24,Hamilton,75,CA,1576431346,63,43.26,-79.87,34.0,13.87
25,Sao Filipe,9,CV,1576431347,76,14.9,-24.5,71.02,28.57
26,Mahibadhoo,8,MV,1576431347,77,3.78,72.97,82.29,16.55
27,Albany,90,US,1576431245,56,42.65,-73.75,41.0,17.22
28,Orsha,90,BY,1576431348,93,54.51,30.43,35.6,13.42
29,Georgetown,20,GY,1576431348,74,6.8,-58.16,86.0,9.17
30,Mahbubnagar,44,IN,1576431348,79,16.74,77.99,69.84,6.73
31,Busselton,0,AU,1576431348,23,-33.64,115.35,69.01,8.57
32,Ushuaia,75,AR,1576431297,70,-54.81,-68.31,55.4,28.86
33,Baykit,100,RU,1576431349,96,61.68,96.39,-26.64,2.46
34,East London,43,ZA,1576431169,63,-33.02,27.91,60.8,20.8
35,Hobart,90,AU,1576431349,76,-42.88,147.33,52.0,6.93
36,Bandarbeyla,20,SO,1576431349,73,9.49,50.81,78.89,18.1
37,Port Augusta,0,AU,1576431349,55,-32.49,137.76,66.0,4.7
38,Dicabisagan,28,PH,1576431350,89,17.08,122.42,76.78,8.93
39,Leshukonskoye,100,RU,1576431350,94,64.9,45.76,22.91,6.87
40,Cockburn Town,40,TC,1576431351,70,21.46,-71.14,84.2,12.75
41,Aklavik,20,CA,1576431351,74,68.22,-135.01,-20.2,4.7
42,Erzin,40,TR,1576431351,100,36.95,36.2,51.8,2.24
43,Port Blair,2,IN,1576431305,80,11.67,92.75,80.4,14.09
44,San Patricio,50,PY,1576431352,89,-26.98,-56.83,70.39,21.23
45,Vaini,48,IN,1576431352,70,15.34,74.49,68.65,6.93
46,Tateyama,45,JP,1576431352,60,36.66,137.31,42.01,1.01
47,Novaya Lyada,100,RU,1576431353,93,52.71,41.64,32.99,16.15
48,Mataura,85,NZ,1576431353,93,-46.19,168.86,46.99,1.01
49,Vanimo,100,PG,1576431353,79,-2.67,141.3,83.61,13.47
50,Pisco,88,PE,1576431353,30,-13.71,-76.2,72.0,12.75
51,Carnarvon,0,ZA,1576431353,13,-30.97,22.13,62.22,12.75
52,Podyuga,100,RU,1576431354,90,61.09,40.86,30.69,9.17
53,Coihaique,75,CL,1576431354,58,-45.58,-72.07,57.2,8.05
54,Hilo,1,US,1576431116,82,19.71,-155.08,69.01,6.93
55,Kyaikto,0,MM,1576431354,66,17.31,97.01,66.7,4.41
56,Impfondo,100,CD,1576431355,63,1.62,18.06,79.2,3.51
57,Storsteinnes,40,NO,1576431355,85,69.24,19.23,32.0,18.34
58,Saskylakh,100,RU,1576431356,97,71.97,114.09,-16.17,11.63
59,Maceio,75,BR,1576431356,58,-9.67,-35.74,86.0,19.46
60,Isangel,100,VU,1576431356,88,-19.55,169.27,77.27,9.44
61,Bredasdorp,23,ZA,1576431246,42,-34.53,20.04,64.4,14.99
62,Sao Desiderio,0,BR,1576431357,40,-12.36,-44.97,86.7,10.2
63,Castro,40,CL,1576431357,48,-42.48,-73.76,62.6,8.05
64,Vidim,20,CZ,1576431358,81,50.47,14.53,48.99,11.41
65,Lebu,55,ET,1576431358,50,8.96,38.73,57.2,6.93
66,Tuktoyaktuk,5,CA,1576431358,75,69.44,-133.03,-18.4,3.36
67,Xiongzhou,43,CN,1576431358,93,32.34,118.83,57.0,2.24
68,Rikitea,100,PF,1576431358,76,-23.12,-134.97,72.28,17.92
69,Ongandjera,46,NA,1576431359,28,-17.88,15.07,89.74,14.65
70,Erenhot,87,CN,1576431359,90,43.65,111.97,23.02,8.1
71,Puerto Ayora,20,EC,1576431359,61,-0.74,-90.35,80.6,20.8
72,Petukhovo,0,RU,1576431359,83,55.06,67.89,4.75,8.37
73,Presidencia Roque Saenz Pena,70,AR,1576431360,93,-26.79,-60.44,66.63,9.31
74,Abha,66,SA,1576431360,87,18.22,42.5,60.8,8.05
75,Kunming,0,CN,1576431360,75,25.04,102.71,46.4,11.18
76,Meulaboh,99,ID,1576431361,82,4.14,96.13,78.73,7.9
77,Atuona,7,PF,1576431361,76,-9.8,-139.03,79.07,15.17
78,Riyadh,40,SA,1576431361,88,24.63,46.72,64.4,8.05
79,Dandong,95,CN,1576431361,55,40.12,124.37,30.22,3.38
80,Saint-Augustin,90,CA,1576431328,79,45.63,-73.98,28.0,11.41
81,Saint-Pierre,75,FR,1576431362,93,48.95,4.24,48.0,11.41
82,Ponta do Sol,46,BR,1576431362,63,-20.63,-46.0,78.78,9.22
83,Longyearbyen,23,NO,1576431259,57,78.22,15.63,23.0,32.21
84,Tessalit,0,ML,1576431363,4,20.2,1.01,71.56,10.11
85,Sola,34,TZ,1576431363,66,-3.17,33.8,71.1,3.02
86,Souillac,90,FR,1576431363,93,45.6,-0.6,54.0,2.24
87,Vao,99,EE,1576431363,97,59.1,26.19,35.31,7.2
88,Dikson,80,RU,1576431364,93,73.51,80.55,-5.42,9.57
89,Nanortalik,0,GL,1576431364,48,60.14,-45.24,22.19,1.57
90,General Salgado,100,BR,1576431364,60,-20.65,-50.36,86.92,10.16
91,Virginia Beach,20,US,1576430562,43,36.85,-75.98,57.2,17.22
92,Victoria,75,BN,1576431184,83,5.28,115.24,80.6,6.93
93,Sukhobezvodnoye,100,RU,1576431365,90,57.05,44.89,28.45,9.98
94,Coracora,100,PE,1576431365,35,-15.02,-73.78,63.3,13.62
95,Cape Town,49,ZA,1576431365,48,-33.93,18.42,64.0,16.11
96,Syamzha,100,RU,1576431366,90,60.02,41.06,30.33,9.73
97,Lagoa,75,PT,1576431366,93,37.14,-8.45,60.01,5.82
98,Thompson,75,CA,1576431301,75,55.74,-97.86,-14.8,2.24
99,Bhuban,9,IN,1576431366,83,20.88,85.83,67.23,0.98
100,Murray,1,US,1576431367,86,40.67,-111.89,30.99,2.33
101,Prestea,95,GH,1576431367,70,5.43,-2.14,82.04,7.81
102,Yellowknife,90,CA,1576431367,75,62.45,-114.38,-20.0,4.7
103,Suleja,63,NG,1576431367,35,9.18,7.18,86.0,3.36
104,Nyuksenitsa,97,RU,1576431368,92,60.41,44.24,26.06,7.85
105,Bagotville,69,AU,1576431368,94,-28.98,153.42,73.4,4.05
106,Natitingou,61,BJ,1576431368,16,10.31,1.38,89.6,4.7
107,Tasiilaq,71,GL,1576431369,45,65.61,-37.64,26.6,3.36
108,Sambava,42,MG,1576431369,92,-14.27,50.17,74.82,0.94
109,Portland,75,US,1576431095,42,43.66,-70.25,48.0,24.16
110,Kapaa,75,US,1576431370,83,22.08,-159.32,77.0,12.75
111,Rudnogorsk,100,RU,1576431370,96,57.27,103.75,-5.46,5.68
112,Barrow,68,AR,1576431371,16,-38.31,-60.23,82.06,16.42
113,Alofi,28,NU,1576431371,88,-19.06,-169.92,77.0,14.99
114,Camacha,20,PT,1576431371,72,33.08,-16.33,66.2,12.75
115,Bartica,75,GY,1576431372,74,6.41,-58.62,86.0,11.41
116,West Odessa,1,US,1576431372,20,31.84,-102.48,73.4,16.11
117,Parana,40,BR,1576431372,74,-7.52,-72.89,86.0,9.17
118,Petropavlovsk-Kamchatskiy,0,RU,1576431372,71,53.05,158.65,5.0,6.71
119,Kloulklubed,90,PW,1576431373,94,7.04,134.26,77.0,4.7
120,Norman Wells,75,CA,1576431373,91,65.28,-126.83,-9.4,5.82
121,Westport,90,US,1576431321,49,41.14,-73.36,48.99,17.22
122,Naberera,70,TZ,1576431373,67,-4.2,36.93,72.64,10.11
123,Taltal,0,CL,1576431374,63,-25.41,-70.49,65.62,7.4
124,Half Moon Bay,1,US,1576431374,66,37.46,-122.43,53.01,10.29
125,Akdepe,0,TM,1576431374,79,42.05,59.39,28.4,16.11
126,Juba,100,EE,1576431374,100,57.82,26.93,36.0,6.93
127,Tumaco,83,CO,1576431375,81,1.8,-78.82,78.48,12.86
128,Severomuysk,75,RU,1576431375,94,56.17,113.57,-12.42,4.94
129,Ribeira Grande,40,PT,1576431375,62,38.52,-28.7,55.4,23.04
130,Cidreira,66,BR,1576431375,85,-30.17,-50.22,74.68,28.05
131,Bambous Virieux,75,MU,1576431376,88,-20.34,57.76,81.0,3.36
132,Tura,92,RU,1576431376,99,64.27,100.22,-14.85,2.71
133,Bereda,40,ES,1576431376,81,43.27,-7.54,53.01,5.82
134,Limbang,75,BN,1576431377,88,4.75,115.01,80.6,4.7
135,Pervoye Maya,10,KG,1576431377,38,40.63,73.68,20.35,3.71
136,Kollam,20,IN,1576431378,94,8.88,76.6,78.8,2.24
137,Bull Savanna,0,JM,1576431378,58,17.89,-77.59,82.96,8.1
138,Rongcheng,93,CN,1576431378,63,37.16,122.42,45.46,6.11
139,Casper,1,US,1576431378,78,42.87,-106.31,23.0,19.46
140,Mareeba,90,AU,1576431379,78,-16.99,145.42,80.6,5.82
141,Svetlaya,100,RU,1576431379,52,46.54,138.33,30.15,12.57
142,Wanaka,100,NZ,1576431379,86,-44.7,169.14,46.0,5.01
143,Misratah,100,LY,1576431379,70,32.38,15.09,65.39,2.77
144,La Ermita,0,ES,1576431380,82,38.52,-0.24,60.01,4.7
145,Upernavik,0,GL,1576431380,57,72.79,-56.15,9.14,11.07
146,Narsaq,0,GL,1576431380,47,60.91,-46.05,15.8,9.17
147,Margate,90,AU,1576431380,76,-43.03,147.26,52.0,6.93
148,Champerico,20,MX,1576431380,65,16.38,-93.6,77.0,4.7
149,Avarua,30,CK,1576431291,69,-21.21,-159.78,75.2,13.87
150,Sungaipenuh,100,ID,1576431381,98,-2.08,101.38,63.46,2.62
151,Lata,39,IN,1576431381,61,30.78,78.62,9.07,5.59
152,Walvis Bay,0,NA,1576431381,73,-22.95,14.51,64.99,1.99
153,Starosubkhangulovo,100,RU,1576431381,73,53.1,57.43,19.81,2.24
154,Mao,75,DO,1576431095,57,19.55,-71.08,86.0,10.29
155,Guerrero Negro,0,MX,1576431382,56,27.97,-114.04,64.81,21.65
156,Havelock,1,US,1576431382,44,34.88,-76.9,61.0,9.17
157,San Carlos de Bariloche,40,AR,1576431382,33,-41.13,-71.31,62.6,28.86
158,Ouargaye,4,BF,1576431383,7,11.5,0.06,82.94,7.96
159,Mount Gambier,90,AU,1576431383,100,-37.83,140.78,53.6,4.7
160,Panama City,1,US,1576431209,68,30.16,-85.65,71.6,16.11
161,Tabas,8,IR,1576431383,46,33.6,56.92,50.0,4.7
162,Fort Nelson,75,CA,1576431383,77,58.81,-122.69,-2.2,3.36
163,Chuy,100,UY,1576431384,91,-33.69,-53.46,73.67,12.03
164,Port Elizabeth,90,US,1576431384,60,39.31,-74.98,54.0,16.11
165,Esperance,75,AU,1576431384,72,-33.86,121.89,60.8,8.05
166,Bonnyville,90,CA,1576431295,77,54.27,-110.74,-0.4,3.36
167,Ust-Omchug,44,RU,1576431385,100,61.13,149.63,-31.95,2.51
168,Whitehorse,40,CA,1576431385,84,60.72,-135.06,5.0,9.17
169,Standerton,0,ZA,1576431385,31,-26.94,29.24,63.37,6.08
170,Porto Novo,40,BR,1576431385,43,-23.68,-45.44,89.6,3.36
171,Arman,84,RU,1576431386,80,59.7,150.17,5.41,8.01
172,Aguimes,20,ES,1576431386,68,27.91,-15.45,68.0,3.36
173,Ghansor,12,IN,1576431386,90,22.66,79.95,61.23,7.09
174,Phan Thiet,37,VN,1576431386,83,10.93,108.1,69.66,2.39
175,Cherskiy,99,RU,1576431387,97,68.75,161.3,-17.18,0.74
176,Severo-Kurilsk,82,RU,1576431387,87,50.68,156.12,19.22,10.42
177,Nehe,0,CN,1576431388,86,48.48,124.88,9.84,6.13
178,Mahebourg,75,MU,1576431388,88,-20.41,57.7,81.0,3.36
179,Lasa,20,CY,1576431388,71,34.92,32.53,57.2,8.05
180,Homer,90,US,1576431345,70,59.64,-151.54,53.6,12.75
181,Moerai,19,PF,1576431388,79,-22.43,-151.33,74.08,23.91
182,Pangkalanbuun,100,ID,1576431389,97,-2.68,111.62,74.08,2.24
183,Lazaro Cardenas,5,MX,1576431389,14,28.39,-105.62,73.0,18.34
184,Sisimiut,34,GL,1576431389,75,66.94,-53.67,2.32,11.72
185,Pokosnoye,100,RU,1576431389,90,55.53,101.05,3.42,9.1
186,Lompoc,1,US,1576431153,66,34.64,-120.46,57.99,9.17
187,Saint-Denis,100,FR,1576431390,81,48.94,2.36,50.0,4.7
188,Mar del Plata,20,AR,1576431390,29,-46.43,-67.52,68.95,5.61
189,Spaichingen,100,DE,1576431390,90,48.07,8.74,50.0,9.1
190,Roald,100,NO,1576431391,73,62.58,6.12,37.0,4.7
191,Palauig,0,PH,1576431391,76,15.44,119.9,74.32,5.3
192,Kahului,40,US,1576431101,78,20.89,-156.47,75.2,13.87
193,Rantepao,100,ID,1576431392,97,-2.97,119.9,67.01,1.57
194,Abu Kamal,83,SY,1576431392,62,34.45,40.92,57.63,7.7
195,Tarata,17,PE,1576431392,47,-17.47,-70.03,75.2,12.75
196,Rangia,75,IN,1576431392,88,26.44,91.62,66.2,3.36
197,Concordia,90,AR,1576431393,78,-31.4,-58.02,72.0,8.05
198,Tyukalinsk,6,RU,1576431393,95,55.87,72.2,0.12,6.2
199,Anantapur,0,IN,1576431305,83,14.68,77.61,69.93,8.72
200,Salsomaggiore Terme,75,IT,1576431393,100,44.81,9.98,42.8,3.49
201,Porirua,96,NZ,1576431394,88,-41.14,174.84,63.0,13.87
202,Jinchang,88,CN,1576431394,49,38.52,102.19,21.58,7.81
203,Hambantota,100,LK,1576431394,81,6.12,81.12,79.95,18.86
204,Flinders,90,AU,1576431394,82,-34.58,150.85,66.99,9.17
205,Tongliao,44,CN,1576431395,79,43.61,122.27,22.33,6.93
206,Bundaberg,2,AU,1576431395,78,-24.87,152.35,78.01,8.05
207,Nago,75,IT,1576431395,81,45.88,10.89,48.99,4.7
208,Artyom,20,RU,1576431395,92,43.36,132.19,21.2,1.72
209,Lorengau,100,PG,1576431396,78,-2.02,147.27,83.46,10.54
210,Ahuimanu,20,US,1576431396,73,21.44,-157.84,75.99,11.41
211,Mackay,90,CA,1576431396,79,53.65,-115.58,21.2,4.7
212,Port Hedland,0,AU,1576431396,78,-20.31,118.58,82.4,4.7
213,Touros,40,BR,1576431396,52,-5.2,-35.46,87.8,17.22
214,Omsukchan,0,RU,1576431397,99,62.53,155.8,-32.69,1.72
215,Santa Ana,1,MX,1576431147,57,30.54,-111.12,64.99,1.01
216,La Plata,90,AR,1576431319,94,-34.92,-57.95,78.01,14.99
217,Rundu,96,NA,1576431398,29,-17.91,19.77,89.6,3.36
218,Fairbanks,1,US,1576431336,76,64.84,-147.72,-4.0,2.91
219,Semnan,0,IR,1576431398,71,35.58,53.39,44.17,3.67
220,Noumea,0,NC,1576431398,82,-22.28,166.46,77.0,9.93
221,Fortuna,75,US,1576431399,93,40.6,-124.16,48.0,8.05
222,Umm Lajj,0,SA,1576431399,52,25.02,37.27,62.28,7.65
223,Saldanha,100,PT,1576431400,83,41.42,-6.55,49.05,12.08
224,Ilulissat,11,GL,1576431400,51,69.22,-51.1,14.0,12.75
225,Sibu,75,MY,1576431400,94,2.29,111.83,77.0,2.24
226,Utena,86,LT,1576431400,89,55.5,25.6,34.54,13.11
227,Nikolskoye,90,RU,1576431400,98,59.7,30.79,34.0,6.71
228,Manicore,98,BR,1576431401,59,-5.81,-61.3,87.42,2.82
229,Snyder,1,US,1576431401,36,32.72,-100.92,75.0,11.41
230,Pangody,98,RU,1576431401,95,65.85,74.49,12.04,6.22
231,Ciudad Bolivar,83,VE,1576431401,52,8.12,-63.55,89.13,6.98
232,Caravelas,26,BR,1576431402,73,-17.73,-39.27,79.72,11.34
233,Saint-Philippe,90,CA,1576431402,68,45.36,-73.48,30.99,25.28
234,Linxia,78,CN,1576431402,93,35.6,103.21,22.42,3.18
235,Pangnirtung,20,CA,1576431402,64,66.15,-65.72,-0.4,8.05
236,Dunedin,77,NZ,1576431402,93,-45.87,170.5,48.99,1.01
237,Faanui,100,PF,1576431403,93,-16.48,-151.75,76.39,14.23
238,Bilma,0,NE,1576431403,12,18.69,12.92,60.84,3.96
239,High Rock,20,BS,1576431403,69,26.63,-78.28,78.8,13.87
240,Kavieng,90,PG,1576431403,77,-2.57,150.8,83.61,11.77
241,Carutapera,48,BR,1576431404,78,-1.2,-46.02,82.54,16.2
242,Namatanai,100,PG,1576431404,77,-3.66,152.44,82.6,8.79
243,Zhigansk,98,RU,1576431405,93,66.77,123.37,-18.06,15.95
244,Luderitz,0,NA,1576431405,49,-26.65,15.16,71.6,25.28
245,Marawi,100,PH,1576431405,94,8.0,124.29,73.99,5.01
246,Rocha,100,UY,1576431405,99,-34.48,-54.34,65.59,10.78
247,Urengoy,100,RU,1576431405,95,65.96,78.37,8.01,7.18
248,Areia Branca,20,BR,1576431406,58,-10.76,-37.31,86.0,13.87
249,Poya,1,NC,1576431406,75,-21.35,165.16,74.46,5.59
250,Harper,1,US,1576431407,28,30.3,-99.24,78.01,10.29
251,San Cristobal,3,HN,1576431407,44,14.68,-86.92,81.63,7.2
252,Ust-Ilimsk,100,RU,1576431407,95,57.96,102.73,-5.67,6.91
253,Solenzo,0,BF,1576431407,7,12.18,-4.08,84.72,6.11
254,Sakaiminato,40,JP,1576431407,93,35.55,133.23,35.6,2.24
255,Oranjemund,0,ZA,1576431408,58,-28.55,16.43,62.22,27.04
256,Rincon,20,PA,1576431408,62,8.46,-82.28,86.0,4.7
257,Lumberton,90,US,1576431408,74,30.27,-94.2,78.8,16.11
258,Pontes e Lacerda,56,BR,1576431408,49,-15.23,-59.33,92.39,6.46
259,Sochi,90,RU,1576431409,66,43.6,39.73,55.4,2.24
260,Quelimane,20,MZ,1576431409,74,-17.88,36.89,82.4,9.17
261,Miandrivazo,92,MG,1576431409,75,-19.53,45.46,78.76,7.85
262,Benjamin Constant,90,BR,1576431409,94,-4.38,-70.03,73.4,5.82
263,Comodoro Rivadavia,75,AR,1576431409,25,-45.87,-67.48,75.2,13.87
264,Shizunai,80,JP,1576431410,62,42.33,142.37,23.72,2.71
265,Yulara,94,AU,1576431410,10,-25.24,130.99,75.2,12.75
266,Kruisfontein,2,ZA,1576431411,74,-34.0,24.73,56.19,12.91
267,Tazovskiy,100,RU,1576431411,96,67.47,78.7,1.67,8.46
268,Leningradskiy,100,RU,1576431411,95,69.38,178.42,6.98,9.26
269,Copenhagen,89,DK,1576431328,93,55.69,12.57,42.8,23.04
270,Cururupu,100,BR,1576431412,74,-1.82,-44.87,84.42,4.79
271,Gambela,71,ET,1576431412,56,8.25,34.59,81.54,3.22
272,Santa Monica,1,US,1576431412,35,34.02,-118.49,60.01,16.11
273,Callaway,90,US,1576431412,71,46.98,-95.91,7.0,13.87
274,Villa Bruzual,62,VE,1576431413,61,9.33,-69.12,87.44,3.69
275,Kyshtovka,98,RU,1576431413,96,56.56,76.62,5.05,5.88
276,Saint Anthony,90,US,1576431184,79,43.97,-111.68,23.0,3.36
277,Surany,100,SK,1576431413,75,48.09,18.18,43.0,8.05
278,Bonanza,22,NI,1576431414,69,14.03,-84.62,81.59,4.21
279,Yerbogachen,94,RU,1576431414,97,61.28,108.01,-16.04,3.8
280,Vestmannaeyjar,0,IS,1576431415,73,63.44,-20.27,26.6,11.41
281,Weinan,90,CN,1576431415,74,34.5,109.46,43.0,2.24
282,Aripuana,100,BR,1576431416,50,-9.17,-60.63,90.95,4.52
283,Basco,90,US,1576431416,79,40.33,-91.2,21.99,3.36
284,Tuban,66,ID,1576431416,87,-6.9,112.07,76.19,3.06
285,Abu Samrah,71,SY,1576431416,74,35.3,37.18,52.16,7.0
286,Okato,92,NZ,1576431417,94,-39.19,173.88,59.0,10.0
287,Gat,0,SN,1576431417,21,14.69,-16.54,102.2,5.73
288,Forestville,90,CA,1576431417,68,48.74,-69.09,32.0,33.33
289,Denpasar,40,ID,1576431417,88,-8.65,115.22,80.6,8.05
290,Ouango,67,CD,1576431417,65,4.31,22.55,76.8,1.7
291,Lindsay,40,CA,1576431418,73,44.36,-78.74,30.99,18.34
292,Ukiah,20,US,1576431418,87,39.15,-123.21,51.01,4.25
293,Abu Dhabi,90,AE,1576431376,60,24.47,54.37,75.2,5.82
294,Morag,86,PL,1576431419,88,53.92,19.93,42.01,8.99
295,Teguldet,78,RU,1576431419,96,57.31,88.17,3.42,4.41
296,Salalah,20,OM,1576431419,74,17.01,54.1,78.8,3.36
297,Nadadores,0,MX,1576431419,12,27.03,-101.59,87.39,6.58
298,Pinega,100,RU,1576431419,95,64.7,43.39,29.71,7.94
299,Inuvik,20,CA,1576431420,75,68.36,-133.71,-20.2,5.82
300,Acapulco,20,MX,1576431420,70,16.86,-99.88,84.2,3.36
301,Torbay,90,CA,1576431420,93,47.66,-52.73,55.99,20.8
302,Inhambane,20,MZ,1576431420,83,-23.87,35.38,80.6,16.11
303,Manta,2,RO,1576431420,57,45.1,24.1,41.41,1.57
304,Bontang,100,ID,1576431421,81,0.12,117.47,79.65,8.9
305,Iskateley,89,RU,1576431421,94,67.68,53.15,12.97,8.43
306,Becerril,80,CO,1576431421,63,9.7,-73.28,89.8,1.34
307,Clyde River,40,CA,1576431421,76,70.47,-68.59,-4.0,4.7
308,Arraial do Cabo,0,BR,1576431422,70,-22.97,-42.02,86.0,23.04
309,Auki,99,NG,1576431422,12,12.18,6.51,75.38,9.98
310,Tiksi,96,RU,1576431422,96,71.64,128.87,-18.42,3.42
311,Vanavara,93,RU,1576431423,97,60.35,102.28,-11.54,7.29
312,Dingle,87,PH,1576431423,92,11.0,122.67,73.4,8.79
313,Provideniya,100,RU,1576431423,95,64.42,-173.23,21.94,9.62
314,Nioro,0,GM,1576431423,8,13.79,-15.05,94.42,3.31
315,Barranca,76,PE,1576431424,88,-10.75,-77.76,67.24,14.45
316,Bathsheba,75,BB,1576431424,70,13.22,-59.52,84.2,20.8
317,Scarborough,67,GB,1576431424,86,54.28,-0.41,42.01,6.93
318,Sheridan,1,US,1576431424,74,39.65,-105.03,33.01,6.51
319,Tuatapere,86,NZ,1576431425,93,-46.13,167.69,46.99,1.01
320,Brigantine,90,US,1576431425,61,39.41,-74.36,53.01,17.22
321,Wewak,89,PG,1576431425,89,-3.55,143.63,76.5,4.76
322,Pierre,90,US,1576431304,85,44.37,-100.35,25.0,4.7
323,Martin,90,US,1576431426,62,36.34,-88.85,45.0,4.7
324,Sumbe,40,AO,1576431426,82,-11.2,13.84,84.2,9.17
325,Zharkent,86,KZ,1576431426,95,44.17,80.0,27.3,5.41
326,Iqaluit,90,CA,1576431426,71,63.75,-68.52,6.8,4.7
327,Vaitape,100,PF,1576431427,93,-16.52,-151.75,76.39,14.23
328,Moron de la Frontera,20,ES,1576431427,58,37.12,-5.45,61.0,4.7
329,Buala,97,SB,1576431427,75,-8.15,159.59,80.42,3.87
330,Shagonar,36,RU,1576431427,98,51.54,92.92,-3.71,2.04
331,Caldwell,75,US,1576431427,100,43.67,-116.69,33.01,3.51
332,Berlevag,75,NO,1576431428,86,70.86,29.09,32.0,10.29
333,Imbituba,75,BR,1576431428,78,-28.24,-48.67,80.6,13.87
334,Constanta,41,RO,1576431428,86,44.18,28.65,42.8,10.29
335,Puerto Escondido,20,MX,1576431428,66,15.86,-97.07,86.0,6.13
336,Mindelo,75,PT,1576431428,100,41.31,-8.72,53.6,4.7
337,Katsuura,75,JP,1576431429,80,33.93,134.5,39.2,5.82
338,Rawson,0,AR,1576431429,61,-43.3,-65.11,61.23,17.78
339,Kericho,98,KE,1576431429,98,-0.37,35.28,53.01,3.44
340,Xihe,95,CN,1576431429,91,34.02,105.29,35.8,2.89
341,Kidal,0,ML,1576431430,5,18.44,1.41,70.14,8.19
342,Hofn,20,IS,1576431430,63,64.25,-15.21,32.0,23.04
343,Banjarmasin,100,ID,1576431430,80,-3.32,114.59,80.35,4.9
344,Baghdad,0,IQ,1576431430,93,33.3,44.38,53.6,3.36
345,Bubaque,0,GW,1576431431,59,11.28,-15.83,81.79,10.94
346,Redmond,90,US,1576430712,93,47.67,-122.12,41.0,3.36
347,Porto Velho,75,BR,1576431146,74,-8.75,-63.87,86.0,4.7
348,Tahoua,0,NE,1576431431,7,14.89,5.26,73.22,10.2
349,Navolato,0,MX,1576431431,82,24.76,-107.7,77.0,5.99
350,Chokurdakh,99,RU,1576431432,96,70.62,147.9,-25.29,5.12
351,Mayumba,0,GA,1576431432,83,-3.44,10.65,79.72,8.72
352,Constantine,27,DZ,1576431432,62,36.36,6.61,53.6,4.7
353,Mashhad,41,IR,1576431206,80,36.3,59.61,39.2,2.84
354,Elizabeth City,1,US,1576431432,47,36.3,-76.22,57.2,14.99
355,Kasempa,99,ZM,1576431433,92,-13.46,25.83,66.72,4.76
356,Umba,100,RU,1576431433,96,66.69,34.34,31.66,18.45
357,High Level,90,CA,1576431433,83,58.52,-117.13,-13.0,2.24
358,Kawalu,91,ID,1576431433,94,-7.38,108.21,71.49,0.85
359,Karratha,0,AU,1576431434,80,-20.74,116.85,80.94,12.19
360,Nandu,19,CN,1576431434,93,31.44,119.33,57.0,2.24
361,Doha,75,QA,1576431434,78,25.29,51.53,71.6,5.82
362,Cumberland,75,US,1576431435,45,41.97,-71.43,48.99,16.11
363,Suluova,40,TR,1576431435,66,40.83,35.65,50.0,3.36
364,Naze,20,NG,1576431435,70,5.43,7.07,84.2,2.24
365,Khandyga,100,RU,1576431435,98,62.65,135.58,-3.78,2.44
366,Caraz,36,PE,1576431435,81,-9.05,-77.81,55.87,9.15
367,San Julian,99,PH,1576431436,82,11.75,125.45,80.15,14.36
368,Vieques,40,PR,1576431436,62,18.43,-65.83,87.8,11.41
369,Svobodnyy,100,RU,1576431436,92,53.85,40.53,34.52,16.71
370,Bosaso,0,SO,1576431436,77,11.28,49.18,77.99,15.08
371,Flin Flon,20,CA,1576431437,76,54.77,-101.88,-7.6,8.05
372,North Platte,90,US,1576431437,85,41.12,-100.77,27.0,9.53
373,Mogadishu,14,SO,1576431437,79,2.04,45.34,82.65,21.0
374,Nara,100,JP,1576431437,75,34.68,135.8,42.8,9.17
375,Komsomolskiy,99,RU,1576431437,96,67.55,63.78,22.98,9.37
376,Vadso,75,NO,1576431438,80,70.07,29.75,35.6,10.29
377,Constitucion,5,MX,1576431438,25,23.99,-104.67,64.0,4.7
378,Gloucester,20,GB,1576431438,70,51.87,-2.25,46.4,12.75
379,Nacogdoches,90,US,1576431438,73,31.6,-94.66,75.99,18.34
380,Boke,0,GN,1576431439,43,10.95,-14.28,86.65,8.5
381,Hervey Bay,50,AU,1576431439,78,-25.3,152.85,78.01,8.05
382,Klaksvik,92,FO,1576431439,75,62.23,-6.59,41.0,9.17
383,Monrovia,32,LR,1576431439,74,6.33,-10.8,82.98,9.48
384,Ishigaki,100,JP,1576431440,79,24.34,124.16,71.13,10.4
385,Salinopolis,90,BR,1576431440,81,-0.61,-47.36,81.63,13.11
386,Caohai,9,CN,1576431440,79,26.87,104.28,43.34,11.12
387,Gorontalo,41,ID,1576431440,93,0.54,123.06,73.67,3.4
388,Chara,20,GR,1576431441,93,39.42,22.43,53.6,1.66
389,Nabire,100,ID,1576431441,97,-3.36,135.5,74.41,1.97
390,Rorvik,13,NO,1576431441,69,64.86,11.24,41.0,12.75
391,Kamenka,10,MD,1576431442,89,48.03,28.7,32.0,6.51
392,Tomatlan,4,MX,1576431442,34,19.93,-105.25,85.64,2.8
393,Airai,72,TL,1576431442,93,-8.93,125.41,67.53,2.59
394,Caraquet,40,CA,1576431236,69,47.79,-64.94,41.0,18.34
395,Laem Sing,32,TH,1576431442,82,12.48,102.07,75.0,6.4
396,Kibaya,91,RW,1576431443,92,-2.2,30.56,62.24,0.67
397,Grand Gaube,75,MU,1576431443,88,-20.01,57.66,81.0,3.36
398,Paita,70,PE,1576431443,100,-5.09,-81.11,62.6,13.87
399,Verkh-Suetka,97,RU,1576431443,98,53.3,80.05,-2.06,5.37
400,Annau,90,TM,1576431444,86,37.89,58.52,37.4,11.41
401,Atar,0,MR,1576431444,8,20.52,-13.05,80.71,6.31
402,Ha Tinh,0,VN,1576431444,86,18.33,105.9,71.17,3.6
403,Cabcab,33,PH,1576431444,83,13.63,124.05,80.1,9.8
404,Trairi,82,BR,1576431445,37,-3.28,-39.27,93.87,11.07
405,Kaeo,100,NZ,1576431445,100,-35.1,173.78,66.0,13.18
406,Berkeley Heights,90,US,1576431445,49,40.68,-74.44,48.99,25.28
407,Omboue,89,GA,1576431446,88,-1.57,9.26,76.48,4.41
408,Wilmington,75,US,1576431446,59,39.75,-75.55,52.0,17.22
409,Geraldton,20,CA,1576431446,70,49.72,-86.95,-2.2,8.05
410,Buchanan,63,LR,1576431446,80,5.88,-10.05,80.96,6.02
411,Gladstone,75,AU,1576431446,74,-23.84,151.26,78.8,6.93
412,Rio Gallegos,40,AR,1576431447,33,-51.62,-69.22,62.6,28.86
413,Morant Bay,20,JM,1576431447,59,17.88,-76.41,89.6,4.7
414,Marzuq,29,YE,1576431447,68,14.4,46.47,63.86,5.93
415,Kurilsk,83,RU,1576431447,76,45.23,147.88,24.46,8.7
416,Culiacancito,0,MX,1576431447,77,24.82,-107.53,77.0,3.0
417,Ossora,0,RU,1576431448,71,59.24,163.07,6.62,6.15
418,Andros Town,40,BS,1576431448,74,24.73,-77.79,79.0,12.75
419,Havoysund,75,NO,1576431448,74,71.0,24.66,35.6,10.29
420,Alice Springs,0,AU,1576431448,12,-23.7,133.88,66.2,5.82
421,General Roca,5,AR,1576431448,21,-39.03,-67.58,78.8,14.99
422,Qaqortoq,0,GL,1576431449,47,60.72,-46.03,15.8,9.17
423,Xochihuehuetlan,0,MX,1576431449,40,17.92,-98.43,82.78,3.13
424,Sorland,66,NO,1576431449,69,67.67,12.69,41.0,11.41
425,Mitsamiouli,20,KM,1576431449,83,-11.38,43.28,80.6,5.82
426,Mumford,99,GH,1576431449,77,5.26,-0.76,80.22,6.13
427,Ahvaz,0,IR,1576431450,93,31.32,48.68,57.2,2.24
428,Khatanga,85,RU,1576431450,96,71.98,102.47,-33.47,4.76
429,Ponta Delgada,75,PT,1576431450,71,37.73,-25.67,53.6,20.8
430,Mananjary,100,MG,1576431450,93,-19.16,46.8,63.77,2.55
431,Morehead,90,US,1576431451,69,38.18,-83.43,36.0,4.85
432,Remedios,99,CO,1576431451,65,7.03,-74.7,82.89,3.29
433,Rio Grande,20,BR,1576431451,70,-32.03,-52.1,86.0,12.75
434,Hasaki,20,JP,1576431451,61,35.73,140.83,37.0,4.7
435,Makakilo City,20,US,1576431303,83,21.35,-158.09,75.99,4.7
436,Chadiza,100,ZM,1576431452,82,-14.06,32.43,71.29,3.06
437,Tautira,75,PF,1576431452,74,-17.73,-149.15,80.6,4.7
438,Garowe,7,SO,1576431452,61,8.41,48.48,76.53,16.78
439,Mozarlandia,46,BR,1576431452,50,-14.74,-50.57,91.6,8.08
440,Uinskoye,100,RU,1576431452,82,56.88,56.58,13.05,6.42
441,Kieta,100,PG,1576431453,81,-6.22,155.63,78.82,12.17
442,Ancud,40,CL,1576431453,48,-41.87,-73.83,62.6,8.05
443,Redcliffe,13,AU,1576431453,34,-31.94,115.94,80.6,5.82
444,Okha,100,RU,1576431453,88,53.59,142.95,4.05,8.61
445,Sitka,100,US,1576431453,66,37.17,-99.65,31.86,6.08
446,Muros,40,ES,1576431454,100,42.77,-9.06,55.0,4.7
447,Richards Bay,96,ZA,1576431454,66,-28.77,32.06,71.53,32.21
448,Guadalupe y Calvo,0,MX,1576431454,41,26.09,-106.96,59.05,6.51
449,Caceres,68,CO,1576431455,65,5.53,-74.53,81.05,3.24
450,Tilichiki,100,RU,1576431455,95,60.47,166.1,2.25,5.28
451,Tual,97,ID,1576431455,68,-5.67,132.75,83.26,3.2
452,San Joaquin,97,PH,1576431455,87,10.59,122.14,74.25,11.56
453,Nelson Bay,90,AU,1576431456,83,-32.72,152.14,80.01,9.17
454,Torres,35,BR,1576431456,85,-29.34,-49.73,74.82,26.28
455,Saint George,20,GR,1576431456,93,39.45,22.34,53.6,1.7
456,Tarakan,68,ID,1576431456,89,3.3,117.63,76.17,6.15
457,Pundaguitan,99,PH,1576431456,87,6.37,126.17,79.02,12.1
458,Umm Kaddadah,26,SD,1576431457,13,13.6,26.69,76.14,14.18
459,Luanda,40,AO,1576431303,69,-8.83,13.24,80.6,11.41
460,Nizhniy Baskunchak,100,RU,1576431457,76,48.22,46.83,32.16,9.89
461,Mehamn,100,NO,1576431458,92,71.03,27.85,35.6,16.11
462,Oceanside,1,US,1576431458,81,33.2,-117.38,62.6,19.04
463,San Quintin,0,PH,1576431458,80,17.54,120.52,72.45,5.55
464,Aleksandrovka,78,RU,1576431458,92,54.24,50.04,17.62,12.17
465,Caohe,90,CN,1576431459,91,32.93,105.08,37.9,2.53
466,Lavrentiya,100,RU,1576431459,93,65.58,-170.99,26.04,9.06
467,Inongo,93,CD,1576431459,98,-1.93,18.29,71.74,0.34
468,Laguna,40,BZ,1576431459,69,16.17,-88.94,82.4,6.93
469,Severnoye,92,RU,1576431459,83,54.09,52.54,13.57,8.3
470,Taoudenni,6,ML,1576431460,19,22.68,-3.98,67.24,4.05
471,Kununurra,57,AU,1576431460,79,-15.77,128.74,84.2,4.7
472,Langsa,69,ID,1576431460,96,4.47,97.97,73.35,4.18
473,La Ronge,90,CA,1576431460,76,55.1,-105.3,-7.6,13.87
474,Sterling,1,US,1576431434,53,39.0,-77.4,55.99,21.92
475,Nome,90,US,1576431461,74,30.04,-94.42,79.0,16.11
476,Usinsk,98,RU,1576431461,95,66.0,57.56,9.45,12.21
477,Talas,0,KG,1576431461,35,42.52,72.24,20.88,4.72
478,Anadyr,90,RU,1576431461,84,64.73,177.51,3.2,13.42
479,Luwuk,71,ID,1576431461,77,-0.95,122.79,81.68,4.43
480,Sayyan,69,YE,1576431462,42,15.17,44.32,59.86,2.89
481,Hirado,4,JP,1576431462,76,33.32,129.49,53.6,5.82
482,Lillesand,100,NO,1576431462,100,58.25,8.38,34.0,3.36
483,Surt,65,LY,1576431457,81,31.21,16.59,59.9,3.06
484,Nuuk,0,GL,1576431463,72,64.17,-51.74,14.0,11.41
485,Hagenow,40,DE,1576431463,65,53.43,11.19,46.99,18.34
486,Coahuayana,0,MX,1576431463,42,18.62,-100.35,87.26,2.46
487,Manzhouli,97,CN,1576431463,86,49.6,117.43,14.02,6.98
488,Port Said,8,EG,1576431463,56,25.34,30.55,58.66,7.47
489,Vila Franca do Campo,75,PT,1576431464,71,37.72,-25.43,53.6,20.8
490,Zhezkazgan,0,KZ,1576431464,79,47.8,67.71,10.62,6.89
491,Fallon,90,US,1576431464,85,46.84,-105.12,18.0,5.82
492,Lumeje,89,AO,1576431464,88,-11.56,20.78,70.74,2.66
493,Aasiaat,21,GL,1576431465,88,68.71,-52.87,-3.12,10.07
494,Lukaya,20,UG,1576431465,73,-0.15,31.87,75.2,6.93
495,Jalu,0,LY,1576431465,62,29.03,21.55,58.8,7.72
496,Beringovskiy,100,RU,1576431465,93,63.05,179.32,13.48,14.63
497,Jiujiang,8,CN,1576431466,65,29.73,115.99,58.15,3.4
498,Cloquet,40,US,1576431466,77,46.72,-92.46,3.2,5.44
499,Tucuman,100,PE,1576431466,24,-17.17,-70.89,69.37,13.87
500,Hofu,20,JP,1576431467,87,34.05,131.57,44.6,4.7
501,Osmena,71,PH,1576431467,83,12.17,124.59,78.94,15.28
502,Awjilah,0,LY,1576431467,64,29.14,21.3,58.66,8.12
503,Borogontsy,100,RU,1576431467,98,62.67,131.17,-11.97,0.49
504,Yar-Sale,100,RU,1576431468,93,66.83,70.83,13.69,3.47
505,Linares,53,CL,1576431468,13,-35.85,-71.6,83.05,10.6
506,Kisangani,75,CD,1576431468,83,0.52,25.21,82.4,2.98
507,Tamiahua,19,MX,1576431468,83,21.28,-97.45,75.47,10.04
508,Swakopmund,10,NA,1576431469,73,-22.68,14.53,64.99,1.99
509,Heiligenhafen,40,DE,1576431469,65,54.37,10.98,46.4,18.34
510,Luena,90,AO,1576431469,92,-11.78,19.91,65.03,4.47
511,Marsh Harbour,1,BS,1576431469,73,26.54,-77.06,73.83,15.48
512,Hundested,84,DK,1576431469,93,55.97,11.85,42.01,23.04
513,Kenai,20,US,1576431362,69,60.55,-151.26,37.4,25.28
514,Xalpatlahuac,0,MX,1576431470,42,17.47,-98.62,76.03,4.07
515,Maningrida,60,AU,1576431470,82,-12.05,134.23,80.67,5.53
516,Meligalas,20,GR,1576431471,87,37.22,21.97,60.01,3.67
517,Tecoanapa,20,MX,1576431472,70,16.99,-99.26,84.2,3.36
518,Ballina,75,IE,1576431472,100,54.11,-9.15,37.99,9.17
519,Livingston,90,US,1576431472,93,32.58,-88.19,62.6,8.05
520,Egvekinot,83,RU,1576431472,90,66.32,-179.17,5.85,8.48
521,Ramona,20,US,1576431197,76,33.04,-116.87,63.0,6.93
522,Mattru,32,SL,1576431473,73,7.62,-11.83,82.78,6.31
523,Xuanzhou,12,CN,1576431473,76,30.95,118.78,52.43,5.61
524,Upata,91,VE,1576431473,81,8.02,-62.41,79.84,5.06
525,Kamaishi,8,JP,1576431473,67,39.28,141.86,30.61,5.1
526,Emba,20,CY,1576431474,71,34.81,32.42,57.2,8.05
527,Axim,90,GH,1576431474,75,4.87,-2.24,80.62,6.51
528,Jasper,75,US,1576431214,87,33.83,-87.28,60.01,8.21
529,Halifax,75,CA,1576431321,81,44.65,-63.58,46.99,29.97
