,City,Cloudiness,Country,Date,Humidity,Lat,Lng,Max Temp,Wind Speed
0,Puerto Ayora,12,EC,1576305476,88,-0.74,-90.35,295.37,1.79
1,Muroto,20,JP,1576305874,36,33.37,134.14,291.15,6.2
2,Atuona,0,PF,1576305478,58,-9.8,-139.03,299.74,2.41
3,Ngunguru,100,NZ,1576305874,63,-35.62,174.5,293.71,3.13
4,Mansa,0,IN,1576305874,60,23.43,72.66,295.15,3.1
5,Axim,66,GH,1576305875,92,4.87,-2.24,297.22,0.27
6,Lata,57,IN,1576305875,86,30.78,78.62,264.28,2.89
7,Marawi,18,PH,1576305875,78,8.0,124.29,302.59,1.34
8,Ilhabela,100,BR,1576305875,89,-23.78,-45.36,296.95,4.56
9,Vila Franca do Campo,75,PT,1576305876,72,37.72,-25.43,291.15,7.7
10,Taltal,6,CL,1576305876,91,-25.41,-70.49,285.7,1.24
11,Kapaa,90,US,1576305835,83,22.08,-159.32,299.15,8.7
12,Lompoc,90,US,1576305876,93,34.64,-120.46,288.71,2.6
13,Bredasdorp,90,ZA,1576305806,73,-34.53,20.04,294.15,7.2
14,Barrow,77,AR,1576305877,26,-38.31,-60.23,290.72,5.53
15,San Policarpo,13,PH,1576305877,85,12.18,125.51,301.33,6.23
16,Saskylakh,96,RU,1576305472,96,71.97,114.09,237.88,3.56
17,Brokopondo,20,SR,1576305877,94,5.06,-54.98,298.15,1.0
18,Mataura,81,NZ,1576305469,49,-46.19,168.86,290.93,4.92
19,Pasni,5,PK,1576305877,43,25.26,63.48,296.9,1.05
20,Hofn,0,IS,1576305878,62,64.25,-15.21,270.15,6.31
21,Upernavik,28,GL,1576305563,59,72.79,-56.15,257.78,2.9
22,Cove,1,US,1576305878,55,29.8,-94.84,289.15,2.6
23,Ushuaia,75,AR,1576305171,100,-54.81,-68.31,279.15,2.1
24,Tandil,29,AR,1576305879,58,-37.33,-59.14,287.04,0.89
25,Yellowknife,20,CA,1576305464,74,62.45,-114.38,242.04,3.6
26,Jamestown,0,AU,1576305466,27,-33.21,138.6,301.79,6.98
27,Kavieng,100,PG,1576305508,74,-2.57,150.8,302.22,4.71
28,Pontianak,48,ID,1576305879,74,-0.02,109.34,302.93,1.73
29,Qaanaaq,5,GL,1576305484,55,77.48,-69.36,249.69,3.09
30,Thompson,5,CA,1576305470,66,55.74,-97.86,238.15,2.1
31,Leningradskiy,100,RU,1576305535,94,69.38,178.42,258.53,9.02
32,Bambous Virieux,75,MU,1576305880,70,-20.34,57.76,303.15,5.1
33,Krasnyy Chikoy,13,RU,1576305880,84,50.36,108.75,264.33,1.18
34,Senneterre,90,CA,1576305880,92,48.39,-77.24,270.15,3.1
35,Padang,87,ID,1576305881,89,-0.92,100.36,297.8,1.1
36,Punta Arenas,100,CL,1576305881,81,-53.16,-70.91,280.15,2.1
37,Burnie,81,AU,1576305881,38,-41.05,145.91,292.59,3.58
38,New Norfolk,40,AU,1576305530,58,-42.78,147.06,289.26,8.7
39,Khatanga,97,RU,1576305471,98,71.98,102.47,238.48,2.53
40,Cabudare,66,VE,1576305882,100,10.02,-69.27,289.15,2.1
41,Flin Flon,0,CA,1576305882,95,54.77,-101.88,245.67,1.91
42,Churapcha,59,RU,1576305507,95,62.0,132.43,240.0,3.85
43,Sao Filipe,25,CV,1576305486,76,14.9,-24.5,294.61,5.83
44,Oranjemund,94,ZA,1576305882,67,-28.55,16.43,292.84,2.33
45,Iqaluit,75,CA,1576305464,71,63.75,-68.52,260.15,5.7
46,Carnarvon,14,ZA,1576305472,43,-30.97,22.13,294.29,5.34
47,East London,20,ZA,1576305469,73,-33.02,27.91,296.15,7.2
48,Moindou,90,NC,1576305883,51,-21.69,165.68,301.15,4.1
49,Poum,90,MK,1576305546,86,41.28,20.71,276.15,3.1
50,Arraial do Cabo,100,BR,1576305487,89,-22.97,-42.02,296.95,3.09
51,Sinnamary,91,GF,1576305552,82,5.38,-52.96,300.34,7.38
52,Chokurdakh,94,RU,1576305475,96,70.62,147.9,241.75,0.94
53,Moroni,40,GR,1576305530,72,35.09,24.92,288.71,6.2
54,Mpika,100,ZM,1576305884,92,-11.84,31.4,292.48,2.3
55,Norman Wells,20,CA,1576305514,74,65.28,-126.83,240.15,1.5
56,Hobyo,17,SO,1576305885,70,5.35,48.53,301.11,6.73
57,Puri,95,ID,1576305506,53,-7.54,112.45,305.9,1.85
58,Hilo,75,US,1576305499,78,19.71,-155.08,296.15,2.1
59,Toamasina,75,MG,1576305885,70,-18.17,49.38,302.15,1.5
60,Port Elizabeth,90,US,1576305886,100,39.31,-74.98,286.48,4.1
61,Bolshoy Kamen,30,RU,1576305886,41,43.12,132.36,269.15,6.0
62,Whitehorse,90,CA,1576305325,85,60.72,-135.06,263.15,7.2
63,Busselton,14,AU,1576305469,5,-33.64,115.35,312.59,4.63
64,Salinopolis,36,BR,1576305886,81,-0.61,-47.36,301.19,6.88
65,Hobart,40,AU,1576305325,58,-42.88,147.33,289.26,8.7
66,Ribeira Grande,98,PT,1576305492,93,38.52,-28.7,288.73,10.96
67,Kodiak,1,US,1576305495,78,39.95,-94.76,275.37,6.7
68,Victor Harbor,40,AU,1576305887,59,-35.55,138.62,297.04,4.1
69,Ostrovnoy,82,RU,1576305888,94,68.05,39.51,267.71,9.48
70,Kontagora,58,NG,1576305888,14,10.4,5.47,291.85,3.05
71,Touros,20,BR,1576305888,83,-5.2,-35.46,296.15,1.5
72,Kahului,1,US,1576305207,61,20.89,-156.47,299.15,8.7
73,Phalodi,0,IN,1576305888,38,27.13,72.36,291.85,4.43
74,Vaini,20,IN,1576305462,48,15.34,74.49,301.15,2.6
75,Rikitea,100,PF,1576305464,80,-23.12,-134.97,296.65,7.45
76,Crna na Koroskem,75,SI,1576305889,92,46.47,14.85,274.26,2.1
77,Bluff,16,AU,1576305473,16,-23.58,149.07,310.95,3.5
78,Georgetown,75,GY,1576305338,100,6.8,-58.16,297.15,1.0
79,Ixtapa,5,MX,1576305890,82,20.71,-105.21,293.71,2.6
80,Butaritari,83,KI,1576305466,77,3.07,172.79,302.24,7.63
81,Dunedin,81,NZ,1576305594,74,-45.87,170.5,288.15,10.28
82,Presque Isle,90,US,1576305890,86,46.68,-68.02,276.15,4.1
83,Cidreira,0,BR,1576305890,72,-30.17,-50.22,293.59,9.25
84,Abnub,0,EG,1576305891,61,27.27,31.15,283.15,6.2
85,Mortka,63,RU,1576305891,94,59.33,66.02,261.42,2.02
86,Katsuura,40,JP,1576305891,42,33.93,134.5,290.15,7.7
87,Makaha,90,US,1576305768,78,21.47,-158.22,299.26,6.7
88,Constitucion,0,MX,1576305556,36,23.99,-104.67,283.15,3.13
89,Ukiah,1,US,1576305614,93,39.15,-123.21,284.82,2.23
90,Aquidauana,37,BR,1576305892,84,-20.47,-55.78,296.81,1.12
91,Jackville,20,CI,1576305892,100,5.21,-4.42,298.15,1.0
92,Avera,90,US,1576305530,98,33.19,-82.53,280.15,2.6
93,Buritis,100,BR,1576305893,93,-15.62,-46.42,293.1,0.43
94,Fortuna,75,US,1576305534,93,40.6,-124.16,283.15,3.6
95,Sao Joao da Barra,100,BR,1576305893,93,-21.64,-41.05,295.63,4.35
96,Saint-Pierre,75,FR,1576305893,81,48.95,4.24,282.15,8.2
97,Ryotsu,75,JP,1576305894,71,38.08,138.43,283.15,5.7
98,Doha,32,QA,1576305755,61,25.29,51.53,298.15,2.1
99,Cap Malheureux,75,MU,1576305894,70,-19.98,57.61,303.15,5.1
100,Mezhdurechenskiy,63,RU,1576305894,94,59.59,65.91,261.42,2.02
101,Khurja,83,IN,1576305894,68,28.25,77.85,291.13,2.62
102,Secunda,87,ZA,1576305895,94,-26.52,29.2,289.26,2.24
103,Bethel,90,US,1576305390,100,60.79,-161.76,272.15,2.6
104,Hasaki,20,JP,1576305503,41,35.73,140.83,290.37,5.7
105,Fort Nelson,5,CA,1576305566,75,58.81,-122.69,247.15,1.0
106,Kruisfontein,56,ZA,1576305521,62,-34.0,24.73,295.95,8.08
107,Sorong,35,ID,1576305537,88,-0.86,131.25,300.91,2.15
108,Maura,60,IN,1576305896,81,29.68,79.39,281.48,1.63
109,Abu Samrah,99,SY,1576305896,89,35.3,37.18,285.15,2.81
110,Husavik,100,CA,1576305510,84,50.56,-96.99,252.59,6.26
111,Pauini,100,BR,1576305896,97,-7.71,-67.0,296.12,1.26
112,Dingle,64,PH,1576305567,84,11.0,122.67,300.36,5.4
113,Port Moresby,75,PG,1576305897,74,-9.47,147.16,303.15,10.3
114,Broome,91,GB,1576305541,75,52.47,1.45,278.71,7.7
115,Stettler,97,CA,1576305898,86,52.32,-112.71,258.15,1.79
116,Port Hardy,75,CA,1576305464,100,50.7,-127.42,274.15,2.6
117,Ponta do Sol,100,BR,1576305462,95,-20.63,-46.0,291.68,2.57
118,Bria,31,CF,1576305898,64,6.54,21.99,297.42,1.23
119,Imeni Poliny Osipenko,34,RU,1576305899,94,52.42,136.49,251.39,1.45
120,Faanui,100,PF,1576305495,82,-16.48,-151.75,299.46,8.74
121,Hithadhoo,60,MV,1576305476,73,-0.6,73.08,301.26,5.04
122,Hirara,40,JP,1576305489,60,24.8,125.28,296.15,5.7
123,Channel-Port aux Basques,88,CA,1576305711,63,47.57,-59.14,272.7,8.05
124,San Juan de los Morros,25,VE,1576305901,91,9.91,-67.35,291.99,0.43
125,Valuyki,100,RU,1576305901,79,50.21,38.1,273.35,7.26
126,Portobelo,20,PA,1576305901,88,9.55,-79.65,298.71,3.6
127,Faya,28,SA,1576305496,63,18.39,42.45,291.15,1.7
128,Port Alfred,1,ZA,1576305483,84,-33.59,26.89,293.15,0.89
129,Toora-Khem,83,RU,1576305902,77,52.47,96.11,262.74,0.94
130,Les Cayes,12,HT,1576305902,68,18.19,-73.75,300.18,1.91
131,Vagur,100,FO,1576305526,90,61.47,-6.81,275.8,16.74
132,Santa Lucia,0,IT,1576305903,65,41.98,12.66,282.04,3.6
133,Nieuw Amsterdam,20,SR,1576305903,94,5.88,-55.08,298.15,1.0
134,Mar del Plata,12,AR,1576305450,38,-46.43,-67.52,288.04,6.35
135,Mandalgovi,100,MN,1576305903,54,45.76,106.27,268.32,4.41
136,Tamboril,44,BR,1576305904,76,-4.83,-40.32,297.84,1.98
137,Fergus Falls,90,US,1576305904,84,46.28,-96.08,261.48,8.2
138,Entebbe,92,UG,1576305904,74,0.06,32.45,295.08,3.14
139,San Ignacio,100,PE,1576305904,96,-5.15,-79.0,289.37,0.34
140,Fuerte Olimpo,74,BR,1576305904,75,-21.04,-57.87,298.75,1.67
141,Chengdu,40,CN,1576305347,62,30.68,104.06,290.37,1.74
142,Nome,90,US,1576305550,93,30.04,-94.42,286.48,2.23
143,Lyaskelya,100,RU,1576305905,97,61.77,31.02,273.29,4.85
144,Castro,10,CL,1576305489,100,-42.48,-73.76,278.15,1.0
145,Cabo San Lucas,5,MX,1576305462,72,22.89,-109.91,294.82,4.1
146,Kenai,1,US,1576305654,69,60.55,-151.26,274.82,7.2
147,Kuusamo,90,FI,1576305906,100,65.96,29.19,272.15,3.6
148,Hermanus,67,ZA,1576305907,89,-34.42,19.24,293.15,3.58
149,Itarema,56,BR,1576305533,75,-2.92,-39.92,299.32,3.5
150,San Andres,10,PH,1576305907,69,13.32,122.68,302.24,5.63
151,Jiuquan,25,CN,1576305463,33,39.73,98.49,270.68,1.97
152,Kaeo,82,NZ,1576305560,63,-35.1,173.78,294.26,3.13
153,Nikolskoye,90,RU,1576305475,80,59.7,30.79,274.82,5.0
154,Kaitangata,78,NZ,1576305512,84,-46.28,169.85,287.59,3.58
155,Srandakan,83,ID,1576305908,65,-7.94,110.25,303.71,3.17
156,Evensk,99,RU,1576305909,76,61.92,159.24,250.84,3.19
157,Bichena,22,ET,1576305909,57,10.45,38.2,286.78,2.73
158,Adilcevaz,75,TR,1576305909,91,38.8,42.73,277.15,1.59
159,Kropotkin,99,RU,1576305910,73,45.43,40.58,278.89,8.03
160,Codrington,56,AU,1576305533,58,-28.95,153.24,304.15,7.2
161,Airai,42,TL,1576305495,46,-8.93,125.41,302.18,2.67
162,Araouane,15,ML,1576305514,7,18.9,-3.53,289.12,5.15
163,Tahoua,67,NE,1576305570,16,14.89,5.26,287.15,3.1
164,Virginia Beach,90,US,1576305884,100,36.85,-75.98,285.37,1.5
165,Tasiilaq,49,GL,1576305477,56,65.61,-37.64,264.15,2.6
166,Souillac,100,FR,1576305508,93,45.6,-0.6,286.48,6.2
167,Lagoa,75,PT,1576305524,93,37.14,-8.45,286.48,2.1
168,Nouadhibou,29,MR,1576305503,62,20.93,-17.03,288.15,6.7
169,Thanh Hoa,20,VN,1576305913,62,10.21,106.33,303.15,2.1
170,Tiksi,59,RU,1576305480,100,71.64,128.87,238.86,1.52
171,Gravdal,75,NO,1576305914,60,59.79,5.78,280.37,5.1
172,Verkhnyaya Inta,100,RU,1576305914,91,65.99,60.32,264.96,4.63
173,Lorengau,73,PG,1576305556,73,-2.02,147.27,302.28,5.06
174,Sao Mateus,42,BR,1576305915,98,-18.72,-39.86,295.0,0.77
175,Xacmaz,42,AZ,1576305516,77,41.46,48.81,281.93,4.39
176,Chipinge,9,ZW,1576305915,64,-20.19,32.62,296.25,0.82
177,Uhlove,41,UA,1576305915,76,44.82,33.6,284.08,3.34
178,Severo-Kurilsk,100,RU,1576305505,80,50.68,156.12,269.38,9.97
179,Bonthe,0,SL,1576305579,86,7.53,-12.5,297.76,1.69
180,Mount Gambier,40,AU,1576305509,59,-37.83,140.78,291.15,5.7
181,Lavrentiya,83,RU,1576305476,93,65.58,-170.99,267.57,7.09
182,Haines Junction,72,CA,1576305504,95,60.75,-137.51,263.34,2.97
183,Marystown,67,CA,1576305917,100,47.17,-55.16,268.15,5.15
184,New Iberia,40,US,1576305917,100,30.0,-91.82,287.59,1.16
185,Saint George,75,GR,1576305561,76,39.45,22.34,286.15,4.1
186,Rumonge,68,BI,1576305918,69,-3.97,29.44,296.11,0.48
187,Esperance,0,AU,1576305470,10,-33.86,121.89,312.15,7.2
188,Saldanha,99,PT,1576305510,87,41.42,-6.55,281.57,5.38
189,Victoria,75,BN,1576305332,59,5.28,115.24,305.15,1.5
190,Najran,20,SA,1576305918,33,17.54,44.22,298.15,0.61
191,Albany,90,US,1576305628,80,42.65,-73.75,280.15,2.1
192,Cape Town,75,ZA,1576305753,93,-33.93,18.42,294.82,4.6
193,Rundu,72,NA,1576305919,41,-17.91,19.77,299.15,1.0
194,Katobu,100,ID,1576305919,79,-4.94,122.53,300.85,4.01
195,Saint-Joseph,0,FR,1576305919,58,43.56,6.97,290.15,10.3
196,Pong,79,CM,1576305920,95,4.23,10.63,296.74,0.16
197,Tahlequah,40,US,1576305753,100,35.92,-94.97,280.93,2.63
198,Lebu,20,ET,1576305465,67,8.96,38.73,289.15,2.1
199,Sola,0,TZ,1576305920,76,-3.17,33.8,294.54,3.5
200,Mnogovershinnyy,0,RU,1576305564,82,53.94,139.92,252.15,2.3
201,Darnah,12,LY,1576305921,60,32.77,22.64,290.88,13.36
202,Karpathos,40,GR,1576305921,67,35.51,27.21,290.15,9.3
203,Pevek,100,RU,1576305497,94,69.7,170.27,255.38,4.14
204,Torbay,75,CA,1576305531,72,47.66,-52.73,267.04,5.1
205,Flinders,75,AU,1576305922,64,-34.58,150.85,297.04,6.2
206,Karasburg,0,NA,1576305922,49,-28.01,18.75,291.05,4.92
207,Baiquan,0,CN,1576305922,82,47.61,126.08,262.44,3.83
208,Nivala,97,FI,1576305922,94,63.93,24.96,273.15,2.24
209,Lichinga,100,MZ,1576305922,92,-13.3,35.25,293.75,2.54
210,Palana,100,RU,1576305500,91,59.08,159.95,258.9,2.06
211,Adrar,0,DZ,1576305486,45,27.87,-0.29,281.15,1.86
212,Punta Cardon,82,VE,1576305923,77,11.61,-70.22,299.09,5.56
213,Atar,46,MR,1576305838,10,20.52,-13.05,289.67,5.2
214,Avarua,100,CK,1576305469,73,-21.21,-159.78,298.15,4.6
215,La Rochelle,90,FR,1576305924,93,46.16,-1.15,284.15,7.7
216,Sibolga,32,ID,1576305924,72,1.74,98.78,301.67,0.96
217,East Bethel,75,US,1576305924,92,45.32,-93.2,265.37,2.1
218,Payo,89,ID,1576305507,80,-3.75,103.64,297.95,1.07
219,Walvis Bay,1,NA,1576305559,90,-22.95,14.51,290.37,2.68
220,Eydhafushi,100,MV,1576305926,76,5.1,73.07,300.83,4.73
221,Gloversville,90,US,1576305926,100,43.05,-74.34,275.93,2.6
222,Salalah,40,OM,1576305562,65,17.01,54.1,301.15,1.0
223,Balakhta,100,RU,1576305926,94,55.38,91.62,267.78,3.03
224,Praia,100,BR,1576305927,77,-20.25,-43.81,294.15,3.6
225,Mango,92,CF,1576305927,94,4.65,22.36,294.69,0.69
226,Batticaloa,38,LK,1576305927,74,7.71,81.69,301.65,4.97
227,Susanville,1,US,1576305849,93,40.42,-120.65,277.59,2.81
228,Topolobampo,0,MX,1576305928,90,25.6,-109.05,291.48,0.89
229,Ahuimanu,90,US,1576305928,78,21.44,-157.84,299.26,3.6
230,Vestmannaeyjar,79,IS,1576305558,78,63.44,-20.27,268.06,5.34
231,Petukhovo,80,RU,1576305928,95,55.06,67.89,259.55,3.19
232,Ternate,40,PH,1576305928,59,14.29,120.72,305.37,2.6
233,Marzuq,0,YE,1576305489,30,14.4,46.47,297.26,1.02
234,Cherskiy,100,RU,1576305498,98,68.75,161.3,248.88,1.99
235,Palmerston,75,AU,1576305929,88,-12.49,130.99,301.48,0.5
236,Matamoros,1,US,1576305929,87,25.87,-97.51,290.15,1.5
237,Rio Gallegos,75,AR,1576305929,87,-51.62,-69.22,281.15,4.1
238,Narsaq,56,GL,1576305930,32,60.91,-46.05,269.15,3.1
239,Mehamn,20,NO,1576305478,82,71.03,27.85,269.08,4.28
240,Lakatoro,3,VU,1576305930,74,-16.11,167.42,301.15,2.1
241,Bom Jardim,40,BR,1576305930,88,-7.8,-35.59,295.15,2.1
242,Mutuipe,37,BR,1576305931,98,-13.23,-39.5,293.92,2.32
243,Grindavik,13,IS,1576305577,67,63.84,-22.43,268.15,4.1
244,Yar-Sale,8,RU,1576305931,99,66.83,70.83,246.62,1.53
245,Russell,1,US,1576305490,89,38.9,-98.86,278.15,3.6
246,Pisco,100,PE,1576305644,82,-13.71,-76.2,292.15,2.6
247,Meulaboh,51,ID,1576305470,71,4.14,96.13,300.42,1.87
248,Cabinda,40,AO,1576305932,94,-5.56,12.19,298.15,4.54
249,Aginskoye,91,RU,1576305932,81,51.11,114.54,262.21,0.89
250,Miandrivazo,58,MG,1576305932,61,-19.53,45.46,302.3,2.48
251,Gediz,11,TR,1576305933,91,38.99,29.39,276.75,3.14
252,Torrijos,86,ES,1576305933,93,39.98,-4.28,281.48,4.1
253,Tabory,99,PL,1576305933,87,53.89,19.53,275.37,2.24
254,Los Llanos de Aridane,90,ES,1576305531,82,28.66,-17.92,290.15,4.1
255,Longyearbyen,20,NO,1576305467,67,78.22,15.63,267.15,10.3
256,Dikson,75,RU,1576305494,100,73.51,80.55,250.25,1.7
257,Yumen,43,CN,1576305568,30,40.29,97.04,273.67,7.27
258,Linxia,28,CN,1576305934,47,35.6,103.21,275.51,1.77
259,Provideniya,100,RU,1576305483,88,64.42,-173.23,264.85,3.17
260,Valdivia,86,CL,1576305934,94,-39.81,-73.25,283.76,0.39
261,Gayeri,46,BF,1576305935,15,12.65,0.49,290.89,3.92
262,Saint-Philippe,90,CA,1576305466,93,45.36,-73.48,277.15,2.6
263,Bathsheba,75,BB,1576305501,94,13.22,-59.52,297.15,3.1
264,Khandbari,100,NP,1576305936,94,27.38,87.21,277.8,1.6
265,Mahebourg,75,MU,1576305492,70,-20.41,57.7,303.15,5.1
266,Zheleznodorozhnyy,90,RU,1576305936,83,55.75,38.0,273.15,3.0
267,Pangnirtung,99,CA,1576305573,92,66.15,-65.72,246.87,2.31
268,Saint-Augustin,90,CA,1576305574,98,45.63,-73.98,276.48,4.1
269,Los Arabos,39,CU,1576305937,94,22.73,-80.72,293.75,1.4
270,Charters Towers,29,AU,1576305937,24,-20.07,146.27,310.31,5.82
271,Rosetta,79,EG,1576305937,57,31.4,30.42,284.15,4.1
272,Grand Gaube,75,MU,1576305479,70,-20.01,57.66,303.15,5.1
273,Tiarei,75,PF,1576305937,78,-17.53,-149.33,299.15,3.1
274,Nanortalik,0,GL,1576305938,43,60.14,-45.24,271.59,3.15
275,Bilibino,100,RU,1576305938,99,68.06,166.44,249.63,1.64
276,Wawa,45,NG,1576305938,25,9.9,4.41,294.49,3.02
277,Antigonish,90,CA,1576305746,85,45.62,-61.99,274.82,3.6
278,Ancud,0,CL,1576305486,100,-41.87,-73.83,278.15,1.0
279,Marsa Matruh,40,EG,1576305939,49,31.35,27.25,282.15,5.1
280,Sidi Ali,0,DZ,1576305939,90,36.1,0.42,284.81,3.55
281,Charlestown,90,US,1576305940,100,41.38,-71.64,285.93,4.1
282,Estelle,85,FR,1576305940,67,43.97,3.47,288.15,7.2
283,Isangel,75,VU,1576305468,58,-19.55,169.27,302.15,4.1
284,Amot,100,NO,1576305940,97,59.57,7.99,267.21,1.58
285,Gorin,33,BF,1576305940,15,12.34,-0.67,291.63,4.23
286,Taman,40,RU,1576305941,93,45.22,36.72,284.82,5.0
287,Diapaga,5,BF,1576305941,14,12.07,1.79,290.12,3.28
288,Japura,100,ID,1576305941,89,-0.42,102.29,298.9,2.23
289,Mogok,1,MM,1576305941,48,22.92,96.51,296.1,1.72
290,Kovur,85,IN,1576305941,71,14.5,79.99,300.23,5.99
291,Braganca,37,BR,1576305942,96,-1.05,-46.77,297.21,0.77
292,Tuktoyaktuk,40,CA,1576305491,69,69.44,-133.03,248.15,4.1
293,Buluang,75,PH,1576305942,70,10.47,123.98,303.15,5.1
294,Verkhnevilyuysk,100,RU,1576305942,91,63.45,120.31,265.09,2.43
295,Coihaique,40,CL,1576305509,66,-45.58,-72.07,283.15,2.6
296,Yerbogachen,88,RU,1576305943,91,61.28,108.01,259.98,5.17
297,San Quintin,0,PH,1576305496,68,17.54,120.52,301.68,2.87
298,Kashin,98,RU,1576305943,89,57.36,37.61,272.81,5.48
299,Taoudenni,55,ML,1576305583,23,22.68,-3.98,286.72,3.22
300,Bacolod,49,PH,1576305944,69,10.68,122.95,302.59,4.04
301,Sitka,82,US,1576305485,69,37.17,-99.65,277.04,3.13
302,Rawson,0,AR,1576305579,49,-43.3,-65.11,289.08,10.95
303,Chenzhou,0,CN,1576305944,27,25.81,113.03,298.48,0.68
304,Eufaula,90,US,1576305944,93,31.89,-85.15,283.15,1.5
305,Namatanai,99,PG,1576305520,70,-3.66,152.44,302.71,3.05
306,Xai-Xai,6,MZ,1576305945,70,-25.04,33.64,299.33,1.89
307,Akhisar,47,TR,1576305945,86,38.92,27.84,280.27,3.77
308,Geraldton,90,CA,1576305468,77,49.72,-86.95,255.15,3.1
309,Idah,16,NG,1576305946,65,7.11,6.73,294.13,0.94
310,Namibe,60,AO,1576305497,73,-15.19,12.15,296.59,3.69
311,Vardo,90,US,1576305492,100,39.62,-77.74,278.15,3.36
312,Sept-Iles,90,CA,1576305540,84,50.2,-66.38,262.04,2.1
313,Tezu,20,IN,1576305947,35,27.93,96.16,296.42,1.91
314,Hinton,100,CA,1576305947,96,53.4,-117.57,266.31,1.51
315,Port Macquarie,75,AU,1576305536,78,-31.43,152.91,301.48,5.1
316,Westport,90,US,1576305843,100,41.14,-73.36,286.48,3.1
317,Pacific Grove,90,US,1576305947,82,36.62,-121.92,288.15,1.5
318,Mandera,0,ET,1576305948,22,3.94,41.86,296.48,1.34
319,Jaguarao,16,BR,1576305948,75,-32.57,-53.38,285.51,2.6
320,Berdigestyakh,100,RU,1576305948,98,62.1,126.7,249.72,3.97
321,Ucluelet,82,CA,1576305411,94,48.94,-125.55,277.59,1.93
322,Arman,31,RU,1576305949,77,59.7,150.17,258.01,4.35
323,Itatskiy,100,RU,1576305949,94,56.07,89.04,262.1,2.77
324,Klaksvik,100,FO,1576305476,74,62.23,-6.59,274.15,11.3
325,Vostok,100,RU,1576305949,93,46.45,135.83,258.07,2.8
326,Tuatapere,83,NZ,1576305505,49,-46.13,167.69,290.93,4.92
327,San Cristobal,46,HN,1576305558,96,14.68,-86.92,289.92,1.11
328,Moba,83,CD,1576305950,69,-7.04,29.77,297.91,2.14
329,Naze,40,NG,1576305526,94,5.43,7.07,296.15,0.79
330,Vao,100,EE,1576305950,92,59.1,26.19,274.28,5.28
331,Itaqui,6,BR,1576305951,47,-29.13,-56.55,292.54,5.27
332,Dolni Nemci,90,CZ,1576305951,93,48.97,17.59,275.37,1.5
333,Luderitz,0,NA,1576305500,72,-26.65,15.16,292.15,2.1
334,Maningrida,7,AU,1576305951,52,-12.05,134.23,306.83,5.39
335,Ullapool,89,GB,1576305952,90,57.9,-5.16,276.48,0.45
336,Sayyan,0,YE,1576305563,45,15.17,44.32,289.57,1.68
337,Lerwick,75,GB,1576305569,87,60.15,-1.15,280.15,6.2
338,Seoul,1,KR,1576305710,45,37.57,126.98,280.15,1.5
339,Green River,90,US,1576305952,92,41.53,-109.47,268.71,2.1
340,Kutum,48,SD,1576305953,23,14.2,24.66,291.72,1.78
341,Sal Rei,42,CV,1576305953,73,16.18,-22.92,294.15,5.1
342,Tazovskiy,38,RU,1576305586,96,67.47,78.7,246.64,4.14
343,Luang Prabang,1,LA,1576305953,47,19.89,102.14,298.15,1.0
344,Callaway,90,US,1576305953,84,46.98,-95.91,260.15,7.2
345,Ostersund,100,SE,1576305510,97,63.18,14.64,273.71,8.2
346,Maniitsoq,100,GL,1576305954,80,65.42,-52.9,265.6,4.3
347,Nemuro,75,JP,1576305954,93,43.32,145.57,273.15,1.0
348,Baghdad,90,IQ,1576305954,100,33.3,44.38,284.15,2.1
349,Lasa,40,CY,1576305954,72,34.92,32.53,292.15,5.1
350,Acari,46,BR,1576305548,83,-6.44,-36.64,294.15,7.4
351,Monrovia,10,LR,1576305474,93,6.33,-10.8,297.31,2.54
352,Santa Marta,22,CO,1576305955,85,11.24,-74.21,288.85,1.4
353,Kalmunai,72,LK,1576305955,77,7.42,81.82,301.02,7.84
354,Tenenkou,0,ML,1576305956,21,14.46,-4.91,291.82,3.63
355,Praia da Vitoria,40,PT,1576305956,77,38.73,-27.07,291.15,12.24
356,Vitim,100,RU,1576305956,92,59.44,112.57,268.14,3.93
357,Sainte-Marie,90,CA,1576305956,92,46.45,-71.03,270.37,5.1
358,Portland,90,US,1576305290,86,43.66,-70.25,281.48,3.6
359,Chuy,58,UY,1576305513,66,-33.69,-53.46,288.34,3.61
360,Filadelfia,48,PY,1576305584,59,-22.35,-60.04,300.89,3.67
361,Bandarbeyla,76,SO,1576305523,76,9.49,50.81,299.58,6.41
362,Kemi,90,FI,1576305957,96,65.74,24.56,274.15,3.1
363,Charyshskoye,100,RU,1576305958,88,51.4,83.56,271.49,6.06
364,Laguna,30,BZ,1576305496,98,16.17,-88.94,294.42,0.61
365,Santa Rosa,98,AR,1576305728,23,-36.62,-64.29,294.2,3.52
366,Saint-Georges,100,CA,1576305958,94,46.12,-70.67,274.82,0.45
367,Masterton,25,NZ,1576305958,54,-40.95,175.66,291.48,2.68
368,Richards Bay,56,ZA,1576305959,79,-28.77,32.06,296.4,8.11
369,Yamasaki,75,JP,1576305959,66,34.97,134.76,288.15,4.1
370,Matara,90,BI,1576305959,80,-3.48,29.48,291.33,0.84
371,Vanimo,100,PG,1576305563,80,-2.67,141.3,301.97,7.91
372,Soure,75,PT,1576305499,100,40.06,-8.63,285.93,0.5
373,Bingol,90,TR,1576305960,100,38.88,40.49,277.15,0.5
374,Horsham,91,AU,1576305960,28,-36.71,142.2,299.48,5.36
375,Sao Felix do Xingu,11,BR,1576305960,98,-6.64,-51.99,294.44,0.34
376,Vila Velha,75,BR,1576305961,65,-3.71,-38.6,301.15,6.7
377,Elko,75,US,1576305961,86,40.83,-115.76,276.48,5.1
378,Honningsvag,25,NO,1576305961,77,70.98,25.97,274.24,9.11
379,Lewisburg,90,US,1576305961,100,40.96,-76.88,279.15,0.89
380,Kedougou,0,SN,1576305962,55,12.56,-12.19,292.15,0.74
381,Oda,20,JP,1576305698,54,35.19,132.5,285.15,8.7
382,Kuytun,96,RU,1576305962,80,54.34,101.51,267.88,2.0
383,Carlisle,60,GB,1576305962,93,54.89,-2.94,278.71,11.3
384,Sault Sainte Marie,90,CA,1576305962,98,46.49,-84.36,274.15,3.13
385,Puerto Maldonado,100,PE,1576305963,99,-12.59,-69.19,294.86,0.69
386,Florida,100,UY,1576305963,54,-34.1,-56.21,286.23,5.32
387,मलिम ६६७,22,NP,1576305963,73,26.88,88.04,284.41,2.11
388,Phonhong,0,LA,1576305963,42,18.5,102.42,302.15,3.1
389,Szczecinek,100,PL,1576305963,95,53.71,16.69,274.82,7.15
390,Chapais,90,CA,1576305491,92,49.78,-74.86,266.15,3.6
391,Waingapu,46,ID,1576305964,68,-9.65,120.26,302.57,3.64
392,Plastun,0,RU,1576305964,61,44.76,136.29,264.81,3.97
393,Kefamenanu,33,ID,1576305964,39,-9.45,124.48,307.09,4.46
394,Mahajanga,20,MG,1576305965,66,-15.72,46.32,304.15,2.1
395,San Carlos de Bariloche,40,AR,1576305965,87,-41.13,-71.31,283.15,5.7
396,General Roca,93,AR,1576305965,39,-39.03,-67.58,292.15,2.6
397,Pochutla,51,MX,1576305549,89,15.74,-96.47,297.59,2.09
398,Nagato,40,JP,1576305518,51,34.35,131.14,288.15,4.1
399,Gillette,90,US,1576305966,92,44.29,-105.5,270.37,1.83
400,Lebork,75,PL,1576305966,92,54.54,17.75,275.37,5.7
401,Buchanan,32,LR,1576305966,93,5.88,-10.05,296.5,1.58
402,Mackay,75,CA,1576305524,84,53.65,-115.58,259.15,1.5
403,Sosnovka,40,RU,1576305967,75,53.23,41.37,267.22,3.96
404,Coquimbo,1,CL,1576305440,87,-29.95,-71.34,287.15,1.5
405,Sydney,40,AU,1576305410,69,-33.85,151.22,299.82,6.7
406,Gazimurskiy Zavod,100,RU,1576305968,87,51.55,118.33,259.16,2.92
407,Nakusp,96,CA,1576305968,99,50.24,-117.8,272.04,0.43
408,Ahipara,42,NZ,1576305969,77,-35.17,173.16,293.71,3.27
409,Inhambane,75,MZ,1576305969,69,-23.87,35.38,301.15,2.1
410,Houma,98,CN,1576305729,31,35.63,111.36,278.89,5.2
411,Gilgit,87,PK,1576305969,86,35.92,74.31,264.99,1.84
412,Togur,89,RU,1576305970,96,58.36,82.83,256.07,2.65
413,Sarkand,100,KZ,1576305970,85,45.41,79.91,272.92,1.4
414,Ola,81,RU,1576305970,76,59.58,151.3,252.99,3.13
415,Charcas,0,MX,1576305971,34,23.13,-101.11,285.42,1.6
416,Strezhevoy,40,RU,1576305971,84,60.73,77.6,260.15,3.0
417,Amga,85,RU,1576305971,96,60.89,131.98,243.4,1.58
418,Juegang,100,CN,1576305972,54,32.31,121.18,288.71,7.92
419,Narasimharajapura,98,IN,1576305972,57,13.61,75.51,300.05,2.64
420,Tornio,90,FI,1576305973,97,61.12,27.27,274.15,4.6
421,Belmonte,94,PT,1576305973,90,40.36,-7.35,283.71,3.29
422,Port-Gentil,40,GA,1576305583,94,-0.72,8.78,298.15,2.6
423,Zagare,90,LT,1576305974,91,56.36,23.25,274.15,9.3
424,Nha Trang,40,VN,1576305974,69,12.24,109.19,301.15,10.8
425,Mahibadhoo,100,MV,1576305975,73,3.78,72.97,301.15,4.4
426,Bara,29,NG,1576305555,25,10.41,10.6,289.39,2.03
427,San Lazaro,17,BZ,1576305975,96,18.04,-88.66,294.62,0.54
428,Guanica,0,PR,1576305975,78,17.97,-66.91,298.71,4.02
429,Gumdag,0,TM,1576305975,57,39.2,54.59,278.84,9.99
430,Dandeli,20,IN,1576305976,61,15.25,74.62,301.15,2.6
431,Surin,12,TH,1576305976,51,14.88,103.49,305.93,2.6
432,Port-Cartier,90,CA,1576305976,84,50.03,-66.88,262.04,2.1
433,Labuhan,37,ID,1576305572,46,-2.54,115.51,307.24,0.79
434,Lamar,1,US,1576305977,50,38.09,-102.62,274.15,2.6
435,Deputatskiy,86,RU,1576305977,95,69.3,139.9,241.33,0.61
436,Ambilobe,0,MG,1576305977,68,-13.19,49.05,303.44,1.36
437,Hearst,100,CA,1576305667,97,49.69,-83.67,255.02,2.36
438,Wanxian,100,CN,1576305977,72,30.8,108.39,285.74,2.43
439,Ulaangom,82,MN,1576305581,89,49.98,92.07,256.5,0.92
440,Bam,0,IR,1576305978,26,29.11,58.36,288.52,0.77
441,Port Blair,13,IN,1576305477,72,11.67,92.75,300.23,7.58
442,Innisfail,1,AU,1576305978,53,-17.52,146.03,304.82,1.34
443,Chambersburg,90,US,1576305978,100,39.94,-77.66,278.15,2.1
444,Balabac,63,PH,1576305979,78,7.99,117.06,301.58,7.79
445,Banjar,51,ID,1576305531,54,-7.37,108.54,305.69,1.81
446,Metro,46,ID,1576305979,52,-5.11,105.31,305.56,3.4
447,Birao,80,CF,1576305480,20,10.3,22.78,298.77,4.35
448,Shieli,97,KZ,1576305979,87,44.18,66.74,273.2,2.79
449,Muisne,100,EC,1576305980,86,0.61,-80.02,296.72,3.37
450,El Reno,1,US,1576305980,58,35.53,-97.96,281.15,5.1
451,Aligarh,83,IN,1576305980,68,27.88,78.07,291.13,2.62
452,Elk City,1,US,1576305980,60,35.41,-99.4,279.15,4.6
453,Tura,100,RU,1576305583,92,64.27,100.22,257.41,2.05
454,Luangwa,100,MZ,1576305981,87,-15.62,30.4,296.68,2.47
455,Kyzyl-Mazhalyk,100,RU,1576305981,86,51.15,90.58,257.44,1.0
456,Kosh-Agach,90,RU,1576305981,78,49.99,88.66,260.21,0.59
457,Rio Grande City,1,US,1576305981,76,26.38,-98.82,289.26,2.22
458,Luganville,75,VU,1576305982,69,-15.51,167.18,301.15,3.1
459,Ugoofaaru,100,MV,1576305982,74,5.67,73.0,301.33,4.35
460,Port Angeles,1,US,1576305982,93,48.12,-123.43,279.26,2.6
461,Fereydun Kenar,0,IR,1576305982,81,36.69,52.52,283.15,2.1
462,Kapit,98,MY,1576305982,50,2.02,112.94,305.98,1.01
463,Warrnambool,100,AU,1576305983,91,-38.38,142.48,289.82,4.02
464,Tekirdag,0,TR,1576305983,87,40.98,27.51,284.26,3.6
465,Piopio,5,CL,1576305983,87,-42.79,-73.57,284.15,2.1
466,Dobric,24,RO,1576305983,92,47.25,24.13,271.15,1.0
467,Stepnyak,68,KZ,1576305983,85,52.83,70.79,262.11,2.41
468,Tabuk,19,PH,1576305984,63,17.41,121.44,302.18,1.97
469,Adeje,100,NG,1576305984,95,5.68,5.76,297.23,0.7
470,Fare,100,PF,1576305518,80,-16.7,-151.02,299.77,9.04
471,Alofi,99,NU,1576305569,88,-19.06,-169.92,294.15,8.2
472,Bemidji,90,US,1576305984,85,47.48,-94.89,264.15,5.1
473,Moron,23,HT,1576305985,79,18.56,-74.26,297.69,1.03
474,Eureka,40,US,1576305985,100,40.8,-124.16,283.15,3.6
475,Komsomolskiy,100,RU,1576305557,95,67.55,63.78,263.35,3.85
476,Georgiyevka,76,RU,1576305985,70,52.25,40.45,269.7,5.87
477,Milkovo,75,BG,1576305986,93,41.53,24.68,285.37,5.1
478,Gat,3,SN,1576305529,55,14.69,-16.54,292.15,3.52
479,Bastia,0,IT,1576305986,65,44.6,8.98,283.15,4.1
480,Castel Volturno,0,IT,1576305986,52,41.03,13.94,286.48,2.1
481,Jieshou,100,CN,1576305987,41,33.26,115.35,282.87,5.33
482,Kurmanayevka,0,RU,1576305987,82,52.51,52.07,262.35,2.81
483,Te Anau,100,NZ,1576305496,76,-45.41,167.72,282.32,3.2
484,Amapa,75,HN,1576305988,88,15.09,-87.97,297.15,1.5
485,Santa Fe,85,AR,1576305875,56,-31.62,-60.7,296.48,0.89
486,Misratah,6,LY,1576305988,72,32.38,15.09,290.69,13.29
487,Tongzi,68,CN,1576305989,59,28.78,105.09,288.57,2.45
488,Kloulklubed,90,PW,1576305989,83,7.04,134.26,300.15,5.1
489,Port Hedland,0,AU,1576305989,35,-20.31,118.58,310.15,7.2
490,Mumford,74,GH,1576305990,92,5.26,-0.76,297.02,0.35
491,Kavaratti,20,IN,1576305583,70,10.57,72.64,303.15,4.1
492,Teya,40,MX,1576305990,94,21.05,-89.07,296.48,0.15
493,Cockburn Town,8,TC,1576305990,77,21.46,-71.14,300.06,9.32
494,Esil,82,KZ,1576305990,86,51.96,66.41,259.66,2.51
495,Ferme-Neuve,100,CA,1576305991,94,46.7,-75.45,270.17,1.56
496,Amuntai,37,ID,1576305991,46,-2.42,115.25,307.24,0.79
497,Myaundzha,99,RU,1576305483,100,63.05,147.18,244.03,0.76
498,Aasiaat,64,GL,1576305991,97,68.71,-52.87,259.65,5.68
499,Sergeyevka,92,KZ,1576305991,92,53.88,67.42,260.22,3.05
500,Karratha,0,AU,1576305562,71,-20.74,116.85,302.0,6.22
501,Udachnyy,90,RU,1576305537,83,66.42,112.4,248.15,1.0
502,Pacatuba,3,BR,1576305992,83,-10.45,-36.65,297.73,2.63
503,Tual,99,ID,1576305513,75,-5.67,132.75,301.27,3.52
504,Daru,68,PG,1576305992,55,-9.07,143.21,304.84,4.27
505,Takhli,0,TH,1576305993,44,15.26,100.34,302.32,2.54
506,Lesnikovo,91,RU,1576305993,95,55.28,65.32,262.26,2.4
507,Kosino,100,PL,1576305993,84,52.56,19.93,277.04,4.1
508,Hovd,75,NO,1576305523,64,63.83,10.7,278.15,10.3
509,Huazhou,0,CN,1576305994,49,21.65,110.64,298.52,5.55
510,Anloga,55,GH,1576305994,79,5.79,0.9,300.11,1.67
511,Skovorodino,34,RU,1576305994,94,53.99,123.94,254.28,0.77
512,Oum Hadjer,4,TD,1576305994,20,13.3,19.7,292.47,3.99
513,Black River,20,JM,1576305995,78,18.03,-77.85,298.15,2.1
514,Poronaysk,100,RU,1576305995,92,49.22,143.1,264.02,4.0
515,Vila,0,IT,1576305995,100,45.18,8.4,279.26,1.0
516,Alta Floresta,99,BR,1576305543,97,-9.87,-56.08,294.87,0.98
517,Kununurra,54,AU,1576305484,25,-15.77,128.74,311.15,3.1
518,Agadez,65,NE,1576305778,20,16.97,7.99,286.15,4.1
519,Moyale,97,ET,1576305996,63,3.52,39.05,298.4,4.57
520,Tiznit,8,MA,1576305996,41,29.7,-9.73,286.17,1.34
521,Moissala,71,TD,1576305997,21,8.34,17.77,294.97,1.02
522,Sao Mateus do Sul,76,BR,1576305997,81,-25.87,-50.38,291.16,1.52
523,Mao,75,DO,1576305997,100,19.55,-71.08,297.59,3.1
524,Henties Bay,37,NA,1576305529,90,-22.12,14.28,290.37,2.68
525,Kon Tum,10,VN,1576305998,52,14.36,108.0,299.98,3.55
526,Grants Pass,90,US,1576305941,93,42.44,-123.33,278.15,0.36
527,Ler,100,NO,1576305998,60,63.2,10.3,278.15,6.7
528,Wattegama,62,LK,1576305999,49,7.35,80.68,303.77,2.0
529,Comarapa,100,BO,1576305999,90,-17.91,-64.53,288.68,0.91
530,Alice Springs,81,AU,1576305512,17,-23.7,133.88,306.15,3.6
531,Corvallis,90,US,1576305999,87,44.56,-123.26,279.82,1.29
532,Vondrozo,83,MG,1576305999,87,-22.82,47.32,298.46,1.57
533,Nuing,75,PH,1576306000,62,5.63,125.44,303.15,3.1
534,Lazaro Cardenas,0,MX,1576306000,70,28.39,-105.62,281.48,1.34
535,San Patricio,0,PY,1576305529,60,-26.98,-56.83,294.16,2.51
536,Sohag,42,EG,1576306000,62,26.55,31.7,285.15,2.1
537,Wagar,80,US,1576306001,73,31.44,-87.99,283.15,2.07
538,Pantai Remis,40,MY,1576306001,79,4.46,100.63,302.15,1.5
539,Gwadar,0,PK,1576306001,61,25.12,62.33,296.89,2.95
540,Moose Factory,90,CA,1576306001,84,51.26,-80.61,256.15,2.1
541,Kotido,39,UG,1576305955,57,3.01,34.12,297.3,5.95
542,Jacareacanga,56,BR,1576305539,96,-6.22,-57.76,295.08,0.42
543,Zhigansk,100,RU,1576305484,97,66.77,123.37,245.44,2.01
544,Dudinka,40,RU,1576306002,75,69.41,86.18,248.15,5.0
545,Osakarovka,87,KZ,1576306002,93,50.56,72.58,261.33,0.97
546,Mgachi,92,RU,1576306003,93,51.05,142.27,260.19,1.21
547,Aykhal,90,RU,1576305482,83,65.95,111.51,248.15,1.0
548,Pavlovsk,90,RU,1576306003,92,53.31,82.99,267.15,6.0
549,Nadadores,0,MX,1576306003,27,27.03,-101.59,292.55,3.28
550,Qinzhou,83,CN,1576306003,51,21.96,108.62,298.37,4.91
551,Conceicao do Araguaia,54,BR,1576306004,91,-8.26,-49.26,296.68,0.72
552,Galle,0,GN,1576306004,45,10.08,-12.83,290.71,0.51
553,Quatre Cocos,75,MU,1576305564,70,-20.21,57.76,303.15,5.1
554,Aquin,3,HT,1576306004,80,18.28,-73.39,297.09,1.57
555,Saint Austell,67,GB,1576306005,87,50.34,-4.77,282.15,7.2
556,DAULTALA,75,PK,1576306005,100,33.19,73.14,285.15,6.2
557,Nikolsk,49,RU,1576306005,90,59.53,45.45,266.97,2.84
558,Pleshanovo,90,RU,1576306005,86,57.46,28.17,274.15,3.0
559,Ouargaye,72,BF,1576306006,14,11.5,0.06,293.35,4.51
560,Harbin,0,CN,1576306006,72,45.77,126.62,268.15,4.0
