,City,Cloudiness,Country,Date,Humidity,Lat,Lng,Max Temp,Wind Speed
0,Iguape,75,BR,1576432589,44,-24.7,-47.56,94.62,1.63
1,Ushuaia,75,AR,1576432589,70,-54.81,-68.31,55.4,28.86
2,Mar del Plata,20,AR,1576432589,29,-46.43,-67.52,68.95,5.61
3,Vaini,48,IN,1576432387,70,15.34,74.49,68.65,6.93
4,Cayenne,75,GF,1576432590,83,4.94,-52.33,82.4,11.41
5,Hilo,1,US,1576432590,82,19.71,-155.08,71.01,6.93
6,Castro,40,CL,1576432590,48,-42.48,-73.76,62.6,8.05
7,Avarua,30,CK,1576432591,65,-21.21,-159.78,77.0,12.75
8,Kulu,90,CD,1576432591,91,3.47,23.69,70.66,3.11
9,Hobart,90,AU,1576432383,76,-42.88,147.33,52.0,6.93
10,Mataura,79,NZ,1576432390,92,-46.19,168.86,48.0,1.01
11,Port Alfred,9,ZA,1576432416,75,-33.59,26.89,61.0,5.99
12,Kapaa,75,US,1576432592,83,22.08,-159.32,77.0,12.75
13,Canyon,90,US,1576432592,92,34.98,-101.92,33.8,18.34
14,Mahebourg,75,MU,1576432592,88,-20.41,57.7,81.0,3.36
15,Nicolas Bravo,5,MX,1576432592,25,24.39,-104.74,64.99,4.7
16,Tuktoyaktuk,5,CA,1576432389,75,69.44,-133.03,-18.4,3.36
17,Taoudenni,6,ML,1576432593,19,22.68,-3.98,67.24,4.05
18,Hermanus,0,ZA,1576432593,68,-34.42,19.24,61.0,3.0
19,Umea,90,SE,1576432337,99,63.83,20.26,32.0,3.36
20,Lebu,55,ET,1576432593,50,8.96,38.73,57.2,6.93
21,Jacareacanga,88,BR,1576432594,44,-6.22,-57.76,93.56,1.72
22,Victoria,75,BN,1576432594,83,5.28,115.24,80.6,6.93
23,Millinocket,75,US,1576432594,55,45.66,-68.71,42.01,16.11
24,Erenhot,87,CN,1576432594,90,43.65,111.97,23.02,8.1
25,San Quintin,0,PH,1576432595,80,17.54,120.52,72.45,5.55
26,Guerrero Negro,0,MX,1576432388,60,27.97,-114.04,64.6,21.7
27,Mugumu,52,TZ,1576432595,87,-1.84,34.67,65.44,2.35
28,Mpika,65,ZM,1576432595,88,-11.84,31.4,64.94,2.17
29,Murmashi,75,RU,1576432596,86,68.82,32.82,30.2,4.47
30,Neiafu,75,TO,1576432596,83,-18.65,-173.98,78.8,13.87
31,Luganville,57,VU,1576432596,96,-15.51,167.18,72.1,1.23
32,Cimarron Hills,75,US,1576432417,53,38.86,-104.7,30.2,11.41
33,Busselton,0,AU,1576432596,24,-33.64,115.35,69.01,9.04
34,Katsuura,75,JP,1576432396,80,33.93,134.5,39.2,5.82
35,Bredasdorp,23,ZA,1576432405,42,-34.53,20.04,64.4,14.99
36,Chuy,100,UY,1576432380,91,-33.69,-53.46,73.67,12.03
37,Jamestown,0,AU,1576432597,30,-33.21,138.6,64.15,6.51
38,Bandarbeyla,32,SO,1576432597,74,9.49,50.81,78.93,17.81
39,Iqaluit,90,CA,1576432598,71,63.75,-68.52,6.8,4.7
40,Ponta do Sol,36,BR,1576432598,62,-20.63,-46.0,78.71,9.62
41,Beringovskiy,100,RU,1576432599,94,63.05,179.32,13.41,14.47
42,Atuona,7,PF,1576432386,76,-9.8,-139.03,79.07,15.17
43,San Patricio,34,PY,1576432599,50,-26.98,-56.83,89.46,6.67
44,Butaritari,100,KI,1576432384,76,3.07,172.79,83.66,7.81
45,Teguldet,78,RU,1576432599,96,57.31,88.17,3.42,4.41
46,Kavaratti,51,IN,1576432600,71,10.57,72.64,83.46,6.98
47,Port Hardy,40,CA,1576432600,100,50.7,-127.42,26.6,2.24
48,Agboville,100,CI,1576432600,62,5.93,-4.21,83.39,3.11
49,Rikitea,100,PF,1576432383,76,-23.12,-134.97,72.28,17.92
50,Barabinsk,100,RU,1576432600,97,55.35,78.35,1.58,6.6
51,Lompoc,1,US,1576432601,53,34.64,-120.46,59.0,13.87
52,Sfantu Gheorghe,5,RO,1576432601,100,44.65,26.83,48.99,6.93
53,Kodiak,90,US,1576432601,85,39.95,-94.76,25.0,6.93
54,Vestmannaeyjar,0,IS,1576432601,73,63.44,-20.27,26.6,11.41
55,Norman Wells,75,CA,1576432388,91,65.28,-126.83,-9.4,5.82
56,Airai,59,TL,1576432405,93,-8.93,125.41,67.23,2.71
57,Geraldton,20,CA,1576432602,70,49.72,-86.95,-2.2,8.05
58,Udachnyy,100,RU,1576432602,66,66.42,112.4,-29.2,4.47
59,Marsa Matruh,40,EG,1576432602,68,31.35,27.25,64.4,11.41
60,Klaksvik,92,FO,1576432602,79,62.23,-6.59,37.4,4.7
61,Saskylakh,100,RU,1576432603,97,71.97,114.09,-16.17,11.63
62,Qaanaaq,65,GL,1576432603,65,77.48,-69.36,-4.5,7.78
63,Bam,61,IR,1576432603,37,29.11,58.36,54.32,5.66
64,Vao,99,EE,1576432603,97,59.1,26.19,35.31,7.2
65,Severo-Kurilsk,82,RU,1576432400,87,50.68,156.12,19.22,10.42
66,Mocuba,14,MZ,1576432604,78,-16.84,36.99,75.85,4.29
67,Grand-Santi,58,GF,1576432604,92,4.27,-54.38,80.11,5.64
68,Qasigiannguit,5,GL,1576432604,51,68.82,-51.19,14.0,12.75
69,Albany,90,US,1576432306,56,42.65,-73.75,43.0,17.22
70,Dikson,92,RU,1576432388,93,73.51,80.55,-6.05,10.38
71,Turan,30,RU,1576432605,96,52.15,93.92,-6.11,0.54
72,Cape Town,49,ZA,1576432472,48,-33.93,18.42,64.0,16.11
73,Tucumcari,20,US,1576432605,69,35.17,-103.73,41.0,17.22
74,Jinxiang,100,CN,1576432605,88,35.07,116.31,46.85,7.56
75,Kamenka,10,MD,1576432606,90,48.03,28.7,32.0,6.51
76,Hithadhoo,96,MV,1576432606,81,-0.6,73.08,80.46,20.31
77,Pevek,100,RU,1576432606,98,69.7,170.27,-6.66,8.39
78,Merauke,18,ID,1576432606,84,-8.49,140.4,77.27,3.38
79,Wewak,100,PG,1576432606,87,-3.55,143.63,76.42,3.78
80,New Norfolk,90,AU,1576432607,76,-42.78,147.06,52.0,3.36
81,Hamilton,90,CA,1576432404,68,43.26,-79.87,36.0,16.11
82,Yellowknife,90,CA,1576432411,75,62.45,-114.38,-20.0,4.7
83,Arraial do Cabo,0,BR,1576432608,70,-22.97,-42.02,86.0,23.04
84,Licheng,10,CN,1576432608,90,24.5,110.4,59.95,3.51
85,Trairi,83,BR,1576432608,43,-3.28,-39.27,90.82,11.83
86,Singleton,90,AU,1576432608,88,-32.57,151.17,73.99,8.05
87,Tusnad,48,RO,1576432608,83,46.2,25.9,37.99,1.21
88,Boysun,0,UZ,1576432609,38,38.2,67.2,37.51,4.18
89,East London,43,ZA,1576432395,63,-33.02,27.91,60.8,20.8
90,Amahai,27,ID,1576432609,85,-3.31,129.0,82.0,6.22
91,Leningradskiy,100,RU,1576432609,95,69.38,178.42,6.13,10.4
92,Lata,39,IN,1576432610,61,30.78,78.62,9.07,5.59
93,Sitka,100,US,1576432610,88,37.17,-99.65,28.0,8.99
94,Upernavik,0,GL,1576432610,57,72.79,-56.15,9.64,12.5
95,Florianopolis,75,BR,1576432500,78,-27.6,-48.55,80.6,13.87
96,Sulangan,83,PH,1576432410,75,11.14,123.72,80.87,14.72
97,Ofunato,0,JP,1576432611,65,39.11,141.75,38.8,8.77
98,Pires do Rio,98,BR,1576432612,67,-17.3,-48.28,81.88,10.29
99,Inhambane,20,MZ,1576432372,83,-23.87,35.38,80.6,16.11
100,Bambous Virieux,75,MU,1576432613,88,-20.34,57.76,81.0,3.36
101,Torbay,90,CA,1576432613,93,47.66,-52.73,57.0,20.8
102,Ambilobe,100,MG,1576432613,81,-13.19,49.05,80.31,2.91
103,Nikolayevka,100,RU,1576432613,96,46.73,38.57,48.11,8.59
104,Bundaberg,2,AU,1576432613,78,-24.87,152.35,78.01,8.05
105,Cidreira,83,BR,1576432614,88,-30.17,-50.22,73.87,24.87
106,Thompson,75,CA,1576432614,75,55.74,-97.86,-14.8,2.24
107,Bluff,17,AU,1576432614,86,-23.58,149.07,73.31,5.12
108,Ardahan,72,TR,1576432614,91,41.11,42.7,19.85,2.73
109,Faanui,100,PF,1576432383,87,-16.48,-151.75,77.79,15.14
110,Port Elizabeth,75,US,1576432615,50,39.31,-74.98,54.0,14.99
111,Barrow,62,AR,1576432615,17,-38.31,-60.23,82.18,18.54
112,Isangel,100,VU,1576432615,88,-19.55,169.27,77.27,9.44
113,Biltine,21,TD,1576432615,15,14.53,20.93,77.05,14.14
114,Springbok,0,ZA,1576432615,15,-29.67,17.88,66.31,15.79
115,Namibe,60,AO,1576432391,77,-15.19,12.15,77.32,7.31
116,Soyo,20,AO,1576432616,79,-6.13,12.37,84.2,8.05
117,Buluang,75,PH,1576432617,74,10.47,123.98,82.4,16.11
118,Pangnirtung,20,CA,1576432617,64,66.15,-65.72,-0.4,8.05
119,Sheltozero,100,RU,1576432617,88,61.37,35.37,36.54,22.37
120,Tabas,8,IR,1576432617,46,33.6,56.92,50.0,4.7
121,Tiksi,96,RU,1576432617,96,71.64,128.87,-18.42,3.42
122,Fukue,75,JP,1576432618,56,35.03,136.69,46.0,12.75
123,Bathsheba,75,BB,1576432618,70,13.22,-59.52,84.2,20.8
124,Talnakh,40,RU,1576432619,75,69.49,88.39,-18.4,6.71
125,Saint-Philippe,75,CA,1576432619,73,45.36,-73.48,30.0,14.99
126,Timra,90,SE,1576432619,100,62.49,17.33,39.0,5.82
127,Cherskiy,99,RU,1576432412,97,68.75,161.3,-16.2,0.63
128,Marawi,90,PH,1576432619,95,8.0,124.29,73.99,4.0
129,Vila Velha,20,BR,1576432393,62,-3.71,-38.6,86.0,20.8
130,Shimoda,75,JP,1576432620,61,34.7,138.93,50.0,6.93
131,Punta Arenas,75,CL,1576432390,76,-53.16,-70.91,50.0,23.04
132,Ende,53,ID,1576432620,76,-8.84,121.65,83.34,4.68
133,Khatanga,85,RU,1576432620,96,71.98,102.47,-33.47,4.76
134,Baoning,75,CN,1576432621,72,25.34,110.03,66.2,6.71
135,Puerto Rico,52,CO,1576432621,65,1.91,-75.15,84.18,3.27
136,Ugoofaaru,100,MV,1576432621,78,5.67,73.0,82.18,14.92
137,Georgetown,20,GY,1576432579,74,6.8,-58.16,86.0,9.17
138,La Ronge,90,CA,1576432622,76,55.1,-105.3,-7.6,13.87
139,Rio Grande,20,BR,1576432622,70,-32.03,-52.1,86.0,12.75
140,Russell,90,US,1576432622,79,38.9,-98.86,24.8,9.17
141,Samarai,38,PG,1576432622,91,-10.62,150.67,72.73,3.31
142,Chokurdakh,99,RU,1576432623,96,70.62,147.9,-25.29,5.12
143,Kirakira,26,SB,1576432623,86,-10.46,161.92,76.35,4.68
144,Nikolskoye,90,RU,1576432623,98,59.7,30.79,34.0,4.47
145,Dicabisagan,2,PH,1576432623,89,17.08,122.42,76.51,8.99
146,Daru,57,PG,1576432624,93,-9.07,143.21,73.09,0.85
147,Bindura,63,ZW,1576432624,56,-17.3,31.33,76.21,2.73
148,Evensk,8,RU,1576432624,77,61.92,159.24,-14.42,8.68
149,Legnica,100,PL,1576432624,70,51.21,16.17,50.0,9.17
150,Havoysund,75,NO,1576432625,74,71.0,24.66,35.6,27.51
151,Nikolskiy,100,RU,1576432625,97,60.92,34.06,35.11,7.74
152,Saint-Prosper,100,CA,1576432625,5,46.21,-70.48,26.01,17.0
153,Alice Springs,0,AU,1576432522,12,-23.7,133.88,66.2,9.62
154,Saint George,20,GR,1576432626,93,39.45,22.34,53.6,1.66
155,San Vicente,97,EC,1576432626,78,-0.59,-80.41,80.6,8.05
156,Talara,55,PE,1576432626,100,-4.58,-81.27,62.6,13.87
157,Kozhevnikovo,97,RU,1576432626,98,56.26,83.98,-0.4,5.3
158,Swan Hill,32,AU,1576432627,42,-35.34,143.56,61.48,5.73
159,Touros,40,BR,1576432627,52,-5.2,-35.46,87.8,17.22
160,Conceicao do Araguaia,59,BR,1576432627,42,-8.26,-49.26,93.16,3.98
161,Longyearbyen,3,NO,1576432393,57,78.22,15.63,23.0,32.21
162,Sidi Ali,41,DZ,1576432627,80,36.1,0.42,56.57,2.57
163,Tucuman,100,PE,1576432628,24,-17.17,-70.89,69.37,13.87
164,San Nicolas,75,PH,1576432593,69,13.93,120.95,82.4,2.24
165,Boves,93,FR,1576432628,87,49.85,2.39,44.6,13.87
166,Pochutla,75,MX,1576432628,62,15.74,-96.47,87.01,9.17
167,Nipawin,1,CA,1576432628,64,53.36,-104.02,-2.2,16.11
168,Hasaki,75,JP,1576432629,86,35.73,140.83,37.0,6.93
169,Vostok,91,RU,1576432629,91,46.45,135.83,8.02,5.06
170,Lasa,20,CY,1576432629,76,34.92,32.53,57.2,5.82
171,Lazaro Cardenas,5,MX,1576432629,14,28.39,-105.62,73.0,18.34
172,Ribeira Grande,40,PT,1576432629,58,38.52,-28.7,57.2,23.04
173,Batagay-Alyta,100,RU,1576432630,98,67.8,130.41,-19.88,2.75
174,Banjar,100,ID,1576432630,93,-7.37,108.54,74.93,2.06
175,Orlik,20,PL,1576432630,86,53.95,17.74,41.0,14.99
176,Corinto,40,CO,1576432631,51,3.17,-76.26,86.0,2.24
177,Bahia Honda,27,CU,1576432631,73,22.9,-83.16,79.97,12.5
178,Esperance,75,AU,1576432404,72,-33.86,121.89,60.8,8.05
179,Tshela,94,CD,1576432631,83,-4.99,12.94,74.25,2.55
180,Mamontovo,94,RU,1576432631,97,52.71,81.63,1.96,4.21
181,Dunedin,68,NZ,1576432632,88,-45.87,170.5,53.01,1.99
182,Petropavl,0,KZ,1576432632,87,54.87,69.13,3.97,7.83
183,Pundaguitan,99,PH,1576432632,87,6.37,126.17,79.02,12.1
184,Luderitz,0,NA,1576432632,49,-26.65,15.16,71.6,25.28
185,Wangqing,0,CN,1576432633,82,43.31,129.76,14.54,3.15
186,Tasiilaq,87,GL,1576432633,45,65.61,-37.64,26.6,3.36
187,Reichenbach,100,DE,1576432633,81,50.62,12.3,45.0,6.93
188,Lavrentiya,100,RU,1576432633,93,65.58,-170.99,26.04,9.06
189,Puerto del Rosario,20,ES,1576432634,77,28.5,-13.86,66.2,3.36
190,Codrington,70,AU,1576432411,93,-28.95,153.24,73.4,3.27
191,Pontes e Lacerda,56,BR,1576432634,49,-15.23,-59.33,92.39,6.46
192,Yeppoon,6,AU,1576432634,78,-23.13,150.74,77.0,4.7
193,Mitsamiouli,20,KM,1576432634,83,-11.38,43.28,80.6,5.82
194,Muromtsevo,98,RU,1576432635,98,56.37,75.24,1.62,4.54
195,Qaqortoq,0,GL,1576432635,47,60.72,-46.03,15.8,9.17
196,Oriximina,100,BR,1576432635,63,-1.77,-55.87,87.35,0.25
197,Te Anau,100,NZ,1576432548,87,-45.41,167.72,43.59,2.24
198,Raudeberg,75,NO,1576432636,72,61.99,5.14,39.99,14.99
199,Otane,100,NZ,1576432636,76,-39.89,176.62,60.01,1.74
200,Nanortalik,0,GL,1576432636,47,60.14,-45.24,22.35,1.52
201,Ongandjera,22,NA,1576432636,32,-17.88,15.07,87.08,13.15
202,Bankura,75,IN,1576432637,88,23.24,87.07,66.2,7.29
203,Liepaja,88,LV,1576432637,86,56.52,21.02,39.2,12.75
204,Polson,75,US,1576432637,92,47.69,-114.16,32.0,3.18
205,Severo-Yeniseyskiy,100,RU,1576432637,98,60.37,93.04,-21.93,4.25
206,Gloversville,90,US,1576432371,69,43.05,-74.34,41.0,25.28
207,Hambantota,100,LK,1576432638,81,6.12,81.12,79.95,18.86
208,Marathon,20,CA,1576432636,70,48.72,-86.38,-0.4,4.7
209,Broome,20,GB,1576432638,81,52.47,1.45,45.0,12.75
210,Hofn,20,IS,1576432638,63,64.25,-15.21,32.0,23.04
211,Kaeo,100,NZ,1576432639,100,-35.1,173.78,66.0,13.18
212,Springfield,75,US,1576432612,48,42.1,-72.59,46.4,24.16
213,Quatre Cocos,75,MU,1576432387,88,-20.21,57.76,81.0,3.36
214,Lensk,100,RU,1576432639,95,60.71,114.91,-4.45,11.54
215,Wladyslawowo,20,PL,1576432640,86,54.79,18.4,42.01,14.99
216,Labuhan,100,ID,1576432640,95,-2.54,115.51,73.58,1.59
217,Mount Gambier,90,AU,1576432640,93,-37.83,140.78,53.6,4.7
218,Xam Nua,0,LA,1576432640,96,20.42,104.04,53.98,2.01
219,Christchurch,100,NZ,1576432637,87,-43.53,172.64,55.99,6.93
220,Coquimbo,0,CL,1576432641,63,-29.95,-71.34,66.2,14.99
221,Port Macquarie,85,AU,1576432423,94,-31.43,152.91,69.8,4.7
222,Tuatapere,86,NZ,1576432404,92,-46.13,167.69,48.0,1.01
223,Vanino,100,RU,1576432642,92,53.93,40.55,34.52,16.71
224,Sydney,75,AU,1576432642,88,-33.85,151.22,70.0,28.86
225,Grand Gaube,75,MU,1576432392,88,-20.01,57.66,81.0,3.36
226,Panaba,27,MX,1576432643,61,21.28,-88.27,84.63,7.2
227,Souillac,90,FR,1576432643,93,45.6,-0.6,54.0,5.82
228,Lorengau,99,PG,1576432643,78,-2.02,147.27,83.57,11.54
229,Tessalit,0,ML,1576432644,4,20.2,1.01,71.56,10.11
230,Bima,100,ID,1576432644,90,-8.45,118.73,73.76,0.74
231,Yulara,94,AU,1576432644,10,-25.24,130.99,75.2,12.75
232,Pokosnoye,100,RU,1576432644,90,55.53,101.05,3.42,9.1
233,Tirat Karmel,75,IL,1576432645,48,32.76,34.97,60.8,2.24
234,Montoro,77,ES,1576432645,71,38.02,-4.38,55.4,2.24
235,Wilmington,75,US,1576432551,56,39.75,-75.55,52.0,14.99
236,Roald,100,NO,1576432645,95,62.58,6.12,37.99,4.7
237,Prince Rupert,1,CA,1576432645,86,54.32,-130.32,33.8,6.93
238,Ponta Delgada,75,PT,1576432646,71,37.73,-25.67,53.6,20.8
239,Mehamn,100,NO,1576432646,92,71.03,27.85,35.6,16.11
240,Aykhal,100,RU,1576432646,66,65.95,111.51,-29.2,4.47
241,Hope,90,US,1576432646,93,33.67,-93.59,54.0,3.36
242,Mtwara,33,TZ,1576432647,89,-10.28,40.18,76.21,3.94
243,Anadyr,90,RU,1576432647,84,64.73,177.51,3.2,13.42
244,Nome,90,US,1576432647,74,30.04,-94.42,79.0,16.11
245,Praia,40,BR,1576432423,42,-20.25,-43.81,86.0,12.75
246,Port Lincoln,0,AU,1576432648,55,-34.72,135.86,64.13,2.04
247,Nelson Bay,90,AU,1576432648,88,-32.72,152.14,73.99,8.05
248,Bethel,1,US,1576432648,92,60.79,-161.76,30.2,11.41
249,Casale Monferrato,75,IT,1576432649,93,45.14,8.45,45.0,2.24
250,Goderich,100,CA,1576432649,81,43.74,-81.71,30.0,17.0
251,Grindavik,40,IS,1576432384,76,63.84,-22.43,33.8,17.22
252,Lubango,75,AO,1576432650,89,-14.92,13.49,66.2,4.7
253,Zwedru,58,LR,1576432650,56,6.07,-8.13,85.08,2.89
254,Buta,77,CD,1576432650,96,2.79,24.73,71.08,3.36
255,Edd,20,ER,1576432650,44,13.93,41.69,84.04,10.11
256,San Julian,100,PH,1576432651,83,11.75,125.45,80.35,15.19
257,Salalah,20,OM,1576432651,74,17.01,54.1,78.8,3.36
258,Port Hedland,0,AU,1576432651,88,-20.31,118.58,80.6,2.24
259,Quelimane,20,MZ,1576432651,74,-17.88,36.89,82.4,9.17
260,North Bend,90,US,1576432651,100,43.41,-124.22,44.01,4.7
261,Poum,31,MK,1576432652,86,41.28,20.71,37.4,2.24
262,Portland,75,US,1576432369,42,43.66,-70.25,46.99,24.16
263,Benjamin Constant,90,BR,1576432652,94,-4.38,-70.03,73.4,5.82
264,Mashhad,41,IR,1576432652,80,36.3,59.61,41.0,4.7
265,Puerto Ayora,20,EC,1576432653,61,-0.74,-90.35,80.6,20.8
266,Tacoronte,75,ES,1576432653,87,28.48,-16.41,68.0,10.29
267,Port Blair,0,IN,1576432653,80,11.67,92.75,80.29,14.94
268,Gari,57,RU,1576432653,90,59.43,62.35,13.03,6.89
269,Telchac,75,MX,1576432654,62,21.2,-89.27,84.2,10.29
270,Sao Filipe,9,CV,1576432406,76,14.9,-24.5,71.02,28.57
271,Half Moon Bay,1,US,1576432654,62,37.46,-122.43,54.0,10.29
272,Escalerillas,20,MX,1576432654,44,19.14,-100.12,71.01,6.85
273,Remiremont,100,FR,1576432654,71,48.02,6.59,51.8,5.82
274,Naze,20,NG,1576432655,70,5.43,7.07,84.2,2.24
275,Nizhniy Ingash,99,RU,1576432655,93,56.2,96.53,-0.15,8.66
276,Bilma,0,NE,1576432655,12,18.69,12.92,60.84,3.96
277,Nokha,0,IN,1576432655,52,27.56,73.47,57.58,7.23
278,Nargana,24,PA,1576432656,74,9.44,-78.59,82.0,8.9
279,Namatanai,96,PG,1576432656,78,-3.66,152.44,82.42,10.07
280,Ahipara,100,NZ,1576432413,100,-35.17,173.16,66.0,10.69
281,Provideniya,100,RU,1576432391,95,64.42,-173.23,21.94,9.62
282,Bilibino,98,RU,1576432657,98,68.06,166.44,-13.36,1.01
283,Belturbet,100,GB,1576432657,87,54.1,-7.44,37.99,1.01
284,Tateyama,51,JP,1576432657,65,36.66,137.31,41.0,5.64
285,Dingle,87,PH,1576432658,92,11.0,122.67,73.4,8.79
286,Henties Bay,0,NA,1576432658,73,-22.12,14.28,64.99,1.99
287,Port Antonio,20,JM,1576432658,59,18.18,-76.45,89.6,4.7
288,Kruisfontein,2,ZA,1576432658,74,-34.0,24.73,56.19,12.91
289,Port Keats,87,AU,1576432658,78,-14.25,129.55,84.04,7.65
290,Sisimiut,34,GL,1576432659,75,66.94,-53.67,2.32,11.72
291,Victoria,75,BN,1576432439,83,5.28,115.24,80.6,6.93
292,Bowen,40,AU,1576432659,94,-20.01,148.25,77.0,2.24
293,Sao Joao da Barra,0,BR,1576432659,55,-21.64,-41.05,86.0,23.04
294,Ust-Omchug,44,RU,1576432659,100,61.13,149.63,-31.95,2.51
295,Gap,8,FR,1576432660,93,44.56,6.08,37.26,3.18
296,Praya,75,ID,1576432660,94,-8.71,116.27,77.0,1.43
297,Kindu,49,CD,1576432660,97,-2.95,25.92,72.27,2.75
298,Havelock,1,US,1576432660,44,34.88,-76.9,61.0,9.17
299,Port-Gentil,20,GA,1576432394,78,-0.72,8.78,82.4,4.7
300,Normandin,90,CA,1576432661,73,48.84,-72.53,21.2,21.92
301,Buala,97,SB,1576432661,75,-8.15,159.59,80.42,3.87
302,Niono,0,ML,1576432661,9,14.25,-5.99,78.21,6.06
303,Baykit,99,RU,1576432662,96,61.68,96.39,-26.72,2.44
304,Kamina,36,CD,1576432662,95,-8.74,25.0,66.85,2.82
305,Srivardhan,31,IN,1576432662,68,18.03,73.02,74.86,4.97
306,Pahrump,1,US,1576432663,45,36.21,-115.98,50.0,13.87
307,Flinders,90,AU,1576432419,82,-34.58,150.85,66.99,9.17
308,Grootfontein,40,NA,1576432663,45,-19.56,18.1,75.72,4.47
309,Zhezkazgan,0,KZ,1576432664,79,47.8,67.71,10.94,6.76
310,Williams Lake,90,CA,1576432664,92,52.13,-122.14,19.4,3.36
311,Tchollire,24,CM,1576432664,16,8.4,14.17,80.98,3.58
312,Coihaique,75,CL,1576432410,58,-45.58,-72.07,57.2,8.05
313,Katherine,98,AU,1576432665,88,-14.47,132.26,78.8,3.36
314,Necochea,60,AR,1576432665,71,-38.55,-58.74,75.0,8.01
315,Hovd,75,NO,1576432665,64,63.83,10.7,39.2,17.22
316,Prenzlau,0,DE,1576432665,79,53.32,13.87,44.01,4.0
317,Nieuw Amsterdam,40,SR,1576432666,66,5.88,-55.08,87.8,6.93
318,Nchelenge,30,ZM,1576432666,71,-9.35,28.74,76.01,2.46
319,Seryshevo,18,RU,1576432666,89,51.09,128.38,-9.89,0.94
320,Saint-Georges,100,CA,1576432666,5,46.12,-70.67,27.0,17.0
321,Kilindoni,61,TZ,1576432667,76,-7.91,39.67,83.57,13.11
322,Rio Gallegos,40,AR,1576432667,33,-51.62,-69.22,62.6,28.86
323,Ranong,19,TH,1576432668,78,9.96,98.62,78.69,6.71
324,Kokkola,90,FI,1576432668,96,63.84,23.13,34.0,6.93
325,Thurso,90,CA,1576432668,73,45.6,-75.25,21.99,25.28
326,Kaitangata,83,NZ,1576432668,95,-46.28,169.85,48.0,3.0
327,Caravelas,26,BR,1576432669,73,-17.73,-39.27,79.72,11.34
328,Begunitsy,90,RU,1576432669,98,59.58,29.3,33.8,4.47
329,Clyde River,40,CA,1576432669,76,70.47,-68.59,-4.0,4.7
330,Burnie,2,AU,1576432657,91,-41.05,145.91,45.0,1.01
331,Jieshi,8,CN,1576432670,79,22.82,115.83,68.0,3.85
332,Vorukh,1,KG,1576432670,78,39.85,70.57,24.17,2.17
333,Lewistown,1,US,1576432670,78,40.39,-90.15,23.0,2.33
334,Nsanje,0,MZ,1576432671,68,-16.92,35.26,78.6,4.63
335,Maturin,100,VE,1576432671,63,9.75,-63.18,86.09,7.43
336,Lyngseidet,20,NO,1576432671,74,69.58,20.21,33.8,25.28
337,Tromso,100,NO,1576432671,86,69.65,18.96,30.2,18.34
338,Villa Carlos Paz,20,AR,1576432672,41,-31.42,-64.5,84.0,9.17
339,Athni,100,IN,1576432672,65,16.73,75.07,70.57,10.45
340,Mandalgovi,100,MN,1576432672,64,45.76,106.27,16.9,7.25
341,Adrar,11,DZ,1576432396,31,27.87,-0.29,73.4,3.74
342,Tual,97,ID,1576432672,68,-5.67,132.75,83.26,3.2
343,Wana,0,PK,1576432673,55,32.31,69.59,26.83,3.09
344,Oksovskiy,99,RU,1576432673,90,62.61,39.91,31.19,8.93
345,Lucapa,91,AO,1576432673,95,-8.42,20.74,68.85,3.09
346,Son La,20,VN,1576432559,89,21.32,103.9,56.07,1.1
347,Tsiroanomandidy,100,MG,1576432674,91,-18.77,46.05,72.77,1.03
348,Bereznik,100,RU,1576432674,95,62.86,42.71,29.07,8.86
349,Brae,100,GB,1576432674,72,60.4,-1.35,41.0,1.12
350,Padang,100,ID,1576432674,95,-0.92,100.36,68.05,2.62
351,Vardo,1,US,1576432674,53,39.62,-77.74,51.01,19.46
352,Tura,92,RU,1576432675,99,64.27,100.22,-14.85,2.71
353,Preobrazheniye,50,RU,1576432675,89,42.9,133.91,28.11,5.93
354,Caucaia,20,BR,1576432495,62,-3.73,-38.66,86.0,20.8
355,Griffith,14,AU,1576432675,27,-34.29,146.06,64.4,3.36
356,Caraballeda,20,VE,1576432675,58,10.61,-66.85,87.8,5.82
357,Vanimo,100,PG,1576432676,79,-2.67,141.3,83.39,13.04
358,Katastarion,20,GR,1576432676,93,37.83,20.77,59.0,8.84
359,Formosa,47,BR,1576432570,70,-15.55,-47.33,78.03,9.62
360,Kavieng,90,PG,1576432676,77,-2.57,150.8,83.61,11.77
361,Hervey Bay,50,AU,1576432676,78,-25.3,152.85,78.01,8.05
362,Micco,1,US,1576432677,64,27.85,-80.5,75.99,5.82
363,Bedele,70,ET,1576432678,81,8.46,36.35,63.01,3.65
364,Umm Kaddadah,46,SD,1576432678,13,13.6,26.69,76.21,13.98
365,Bulgan,100,MN,1576432678,96,48.81,103.53,8.65,3.24
366,Constitucion,5,MX,1576432678,25,23.99,-104.67,64.99,4.7
367,Maniitsoq,15,GL,1576432678,60,65.42,-52.9,14.5,6.76
368,Colima,5,MX,1576432679,61,19.25,-103.72,77.0,9.17
369,Ambon,75,FR,1576432679,76,47.55,-2.56,52.0,6.93
370,Hurricane,40,US,1576432679,93,37.18,-113.29,37.99,4.7
371,Aklavik,20,CA,1576432413,74,68.22,-135.01,-20.2,4.7
372,Siniscola,20,IT,1576432680,81,40.57,9.69,53.6,1.12
373,Antofagasta,31,CL,1576432518,68,-23.65,-70.4,73.0,17.22
374,Tilichiki,100,RU,1576432680,95,60.47,166.1,2.25,5.28
375,Finschhafen,100,PG,1576432680,72,-6.6,147.85,82.85,5.91
376,Camacha,20,PT,1576432680,72,33.08,-16.33,66.2,12.75
377,Semey,96,KZ,1576432681,97,50.41,80.25,5.14,3.49
378,Navirai,56,BR,1576432682,56,-23.07,-54.19,88.81,9.37
379,Sao Felix do Xingu,68,BR,1576432682,48,-6.64,-51.99,92.07,4.9
380,Ostrovnoy,96,RU,1576432682,91,68.05,39.51,27.46,9.26
381,Aripuana,100,BR,1576432682,44,-9.17,-60.63,93.43,3.44
382,General Roca,43,AR,1576432682,21,-39.03,-67.58,78.8,14.99
383,Veraval,100,FR,1576432683,87,49.65,0.71,46.4,8.05
384,Chipoka,90,MW,1576432683,67,-13.99,34.52,78.91,2.59
385,Zhigansk,98,RU,1576432683,93,66.77,123.37,-18.06,15.95
386,Paamiut,0,GL,1576432683,37,61.99,-49.67,13.03,4.56
387,Ust-Kishert,100,RU,1576432683,81,57.36,57.24,11.01,7.07
388,Larsnes,100,NO,1576432684,88,62.2,5.58,39.99,4.7
389,Rechitsy,90,RU,1576432684,100,55.6,38.46,37.0,13.42
390,Essen,34,DE,1576432684,70,51.46,7.01,46.99,13.87
391,Venezuela,0,CU,1576432684,72,21.74,-78.8,81.14,6.85
392,Berlevag,75,NO,1576432685,81,70.86,29.09,32.0,12.75
393,Matiri,52,UG,1576432685,96,0.58,30.76,62.67,1.72
394,Crotone,16,IT,1576432685,87,39.09,17.12,57.2,14.99
395,Calama,0,CL,1576432685,18,-22.46,-68.93,73.4,24.16
396,Modra,100,SK,1576432686,93,48.34,17.31,42.8,9.17
397,Fare,100,PF,1576432686,84,-16.7,-151.02,78.82,12.8
398,Mufumbwe,99,ZM,1576432686,91,-13.68,24.8,68.59,3.87
399,Belyy Yar,93,RU,1576432686,85,53.6,91.39,14.0,2.24
400,Cabo San Lucas,5,MX,1576432542,56,22.89,-109.91,81.0,6.93
401,Talcahuano,1,CL,1576432687,49,-36.72,-73.12,69.8,19.46
402,Iberia,100,PE,1576432687,89,-11.41,-69.49,79.66,2.46
403,The Valley,20,AI,1576432688,62,18.22,-63.06,84.99,18.34
404,Ketchikan,60,US,1576432425,81,55.34,-131.65,30.02,3.91
405,Tiarei,90,PF,1576432689,74,-17.53,-149.33,80.6,3.36
406,Varnavino,97,RU,1576432689,89,61.19,46.56,25.38,8.63
407,Kautokeino,100,NO,1576432689,97,69.01,23.04,17.83,2.59
408,Flagstaff,75,US,1576432689,48,35.2,-111.65,54.0,9.17
409,Podyuga,100,RU,1576432689,90,61.09,40.86,30.69,9.17
410,Laguna,40,BZ,1576432690,69,16.17,-88.94,82.4,6.93
411,Carnarvon,0,ZA,1576432690,12,-30.97,22.13,62.67,13.29
412,Lanxi,0,CN,1576432690,47,29.21,119.46,51.01,3.06
413,Lethem,83,GY,1576432690,45,3.38,-59.8,92.43,12.53
414,Fairbanks,1,US,1576432531,76,64.84,-147.72,-4.0,2.91
415,Moron,0,HT,1576432691,77,18.56,-74.26,81.66,14.41
416,Puerto Cabezas,40,NI,1576432691,88,14.04,-83.39,82.4,6.93
417,Lamu,25,CN,1576432691,90,35.77,102.37,18.5,2.77
418,Rutland,90,US,1576432532,80,43.61,-72.97,42.8,12.75
419,Seoul,1,KR,1576432691,92,37.57,126.98,37.4,1.12
420,Eureka,90,US,1576432692,93,40.8,-124.16,48.99,9.17
421,Jiuquan,12,CN,1576432692,57,39.73,98.49,17.58,1.61
422,Pombas,67,BR,1576432692,53,-15.9,-54.74,88.32,7.43
423,Xaxim,40,BR,1576432693,62,-26.96,-52.53,84.99,17.22
424,Opuwo,71,NA,1576432693,28,-18.06,13.84,81.91,6.06
425,Langxiang,38,CN,1576432693,95,46.95,128.87,9.36,3.83
426,Pingdu,20,CN,1576432693,86,36.79,119.95,41.0,2.24
427,Novita,78,CO,1576432694,76,4.96,-76.61,80.37,4.25
428,Yarada,20,IN,1576432694,94,17.65,83.27,73.4,2.24
429,Chapais,90,CA,1576432694,78,49.78,-74.86,8.6,23.04
430,Boyolangu,100,ID,1576432694,87,-8.09,111.9,75.34,1.28
431,Spas-Klepiki,100,RU,1576432695,100,55.13,40.18,34.0,10.0
432,Sola,48,TZ,1576432695,65,-3.17,33.8,71.4,2.26
433,Tigre,100,AR,1576432695,78,-34.42,-58.58,82.99,8.05
434,Rush,90,US,1576432695,74,40.31,-81.37,34.0,8.05
435,Bronkhorstspruit,25,ZA,1576432696,32,-25.81,28.74,78.01,13.85
436,Lagoa,75,PT,1576432696,93,37.14,-8.45,60.01,11.41
437,Nanyang,100,CN,1576432696,80,33.0,112.53,42.4,7.43
438,Kaniama,57,CD,1576432696,95,-7.57,24.18,69.03,2.95
439,Sal Rei,0,CV,1576432697,64,16.18,-22.92,77.0,14.99
440,Marsh Harbour,1,BS,1576432697,73,26.54,-77.06,73.83,15.48
441,Kirkwood,16,ZA,1576432697,63,-33.4,25.44,62.6,19.46
442,Cockburn Town,40,TC,1576432607,70,21.46,-71.14,84.2,12.75
443,Teocaltiche,20,MX,1576432697,31,21.43,-102.58,64.4,6.93
444,Vila Franca do Campo,75,PT,1576432698,71,37.72,-25.43,53.6,20.8
445,Rawson,0,AR,1576432698,61,-43.3,-65.11,61.23,17.78
446,Saryozek,0,KZ,1576432698,86,44.36,77.98,14.79,3.31
447,Nemuro,18,JP,1576432698,61,43.32,145.57,29.8,7.23
448,Los Llanos de Aridane,40,ES,1576432699,82,28.66,-17.92,66.2,1.12
449,Sangar,100,RU,1576432699,96,63.92,127.47,-8.73,4.12
450,Tynda,95,RU,1576432699,97,55.15,124.74,-13.41,1.9
451,Mirabad,88,IR,1576432700,43,28.27,61.33,49.48,1.5
452,Methoni,20,GR,1576432700,87,36.82,21.7,60.01,10.07
453,Nalut,57,LY,1576432700,45,31.86,10.98,61.41,3.22
454,Darhan,100,MN,1576432701,90,49.49,105.92,8.04,6.13
455,Garoua,77,CM,1576432701,27,9.31,13.39,78.8,2.24
456,Tari,85,NG,1576432701,9,12.41,4.49,78.51,9.95
457,Markova,100,RU,1576432702,84,52.21,104.21,8.6,4.47
458,Neryungri,99,RU,1576432702,99,56.66,124.71,-3.82,3.04
459,Yantal,100,RU,1576432702,94,56.85,105.25,-1.73,8.3
460,Madulao,22,PH,1576432702,91,13.56,122.34,76.24,7.76
461,Meulaboh,99,ID,1576432702,82,4.14,96.13,78.73,7.9
462,Sudogda,100,RU,1576432703,92,55.95,40.86,34.84,12.19
463,Sept-Iles,75,CA,1576432585,93,50.2,-66.38,34.0,18.34
464,Bonthe,17,SL,1576432703,74,7.53,-12.5,83.5,10.29
465,Boffa,3,GN,1576432703,67,10.18,-14.04,82.24,9.1
466,Ixtapa,5,MX,1576432703,57,20.71,-105.21,78.01,3.78
467,Rio Verde de Mato Grosso,97,BR,1576432704,55,-18.92,-54.84,88.54,8.16
468,Marabba,28,SD,1576432704,11,12.35,32.18,81.1,13.33
469,Arlit,0,NE,1576432704,5,18.74,7.39,72.68,7.49
470,Fortuna,90,US,1576432704,93,40.6,-124.16,48.99,9.17
471,Altamira,75,BR,1576432705,70,-3.2,-52.21,87.8,5.82
472,Boddam,90,GB,1576432705,80,57.47,-1.78,35.6,9.17
473,Kalakamati,20,BW,1576432705,22,-20.59,27.31,89.6,5.82
474,Linjiang,2,CN,1576432705,87,41.81,126.91,14.31,2.86
475,Shubarkuduk,100,KZ,1576432706,77,49.15,56.49,16.93,12.84
476,Matamoros,40,US,1576432706,58,25.87,-97.51,84.0,21.92
477,Santa Cruz,18,BR,1576432706,44,-6.22,-36.02,87.8,14.34
478,Bikin,66,RU,1576432706,94,46.82,134.25,6.85,3.31
479,Oktyabrskiy,90,RU,1576432707,100,55.61,37.97,37.0,13.42
480,Launceston,5,AU,1576432707,87,-41.43,147.14,46.4,10.29
481,Patea,100,NZ,1576432707,95,-39.76,174.48,63.0,3.0
482,Cochrane,79,CL,1576432707,80,-47.25,-72.57,45.1,8.55
483,Tanete,100,ID,1576432707,95,-3.94,119.78,74.44,2.24
484,Avera,40,US,1576432708,67,33.19,-82.53,61.0,8.59
485,Pervomayskoye,92,RU,1576432708,96,57.07,86.23,2.73,5.75
486,Roswell,1,US,1576432708,30,33.39,-104.52,72.0,29.97
487,Mildura,36,AU,1576432708,25,-34.18,142.16,62.6,4.7
488,Pirovskoye,46,RU,1576432708,98,57.63,92.27,-11.02,5.37
489,Zhangye,51,CN,1576432709,51,38.94,100.46,22.05,6.44
490,Pisco,88,PE,1576432709,30,-13.71,-76.2,71.6,12.75
491,Leshukonskoye,100,RU,1576432710,94,64.9,45.76,22.86,6.71
492,Mumford,98,GH,1576432710,75,5.26,-0.76,80.17,6.22
493,Huautla,0,MX,1576432710,55,21.03,-98.29,76.75,4.7
494,Cabra,65,ES,1576432710,71,37.47,-4.43,55.4,2.24
495,Yashkul,100,RU,1576432710,84,46.17,45.34,42.01,11.12
496,Bulawayo,4,ZW,1576432711,29,-20.16,28.59,78.26,6.13
497,Saldanha,100,PT,1576432424,84,41.42,-6.55,49.15,11.97
498,Duldurga,94,RU,1576432711,68,50.67,113.59,14.05,12.84
499,Kyzyl-Oktyabr,0,KG,1576432711,54,42.77,75.73,18.34,6.22
500,Harbour Breton,100,CA,1576432711,100,47.48,-55.8,55.0,7.0
501,Pangody,97,RU,1576432712,95,65.85,74.49,11.52,6.53
502,Muros,75,ES,1576432712,87,42.77,-9.06,55.0,6.93
503,Akdagmadeni,81,TR,1576432713,91,39.66,35.88,31.75,2.35
504,Kargasok,85,RU,1576432713,96,59.06,80.87,2.26,6.96
505,General Pico,58,AR,1576432713,16,-35.66,-63.75,88.52,7.74
506,San Miguel,100,AR,1576432713,78,-34.54,-58.72,82.99,8.05
507,Clayton,1,US,1576432714,81,37.94,-121.94,54.0,2.55
508,Zacualpan,20,MX,1576432714,64,21.25,-105.17,78.01,3.78
509,Honiara,40,SB,1576432415,100,-9.43,159.96,73.4,5.82
510,Yerbogachen,94,RU,1576432714,97,61.28,108.01,-14.91,4.56
511,Santa Maria del Oro,0,MX,1576432714,19,25.95,-105.37,68.05,8.68
512,Santiago,27,PH,1576432503,96,16.69,121.54,69.73,1.25
513,Tiebissou,20,CI,1576432715,55,7.16,-5.23,89.6,4.7
514,Makueni,3,KE,1576432513,98,-1.8,37.62,63.99,3.22
515,Poya,1,NC,1576432715,75,-21.35,165.16,74.46,5.59
516,Ciudad Ojeda,100,VE,1576432715,67,10.22,-71.33,83.44,0.51
517,Kapuskasing,5,CA,1576432716,58,49.42,-82.43,-4.0,12.75
518,Arman,84,RU,1576432716,80,59.7,150.17,5.41,8.01
519,Manoel Urbano,48,BR,1576432716,69,-8.84,-69.26,86.52,2.91
520,Pudozh,99,RU,1576432716,97,61.81,36.54,31.86,8.5
521,Chimbote,34,PE,1576432716,61,-9.08,-78.59,75.6,13.96
522,Tres Arroyos,65,AR,1576432717,15,-38.38,-60.28,83.8,17.47
523,Ramganj Mandi,0,IN,1576432717,53,24.65,75.94,56.25,8.25
524,Richards Bay,96,ZA,1576432717,66,-28.77,32.06,71.53,32.21
525,Tevaitoa,100,PF,1576432717,83,-16.78,-151.5,78.91,18.57
526,Ossora,0,RU,1576432718,70,59.24,163.07,6.58,5.95
527,Hadgaon,85,IN,1576432718,56,19.5,77.66,73.89,4.38
528,Zadar,17,HR,1576432718,71,44.12,15.24,55.99,6.93
529,Rosendal,75,NO,1576432718,93,59.99,6.01,39.99,11.41
530,Oussouye,0,SN,1576432719,61,12.49,-16.54,95.0,9.17
531,Parlakimidi,53,IN,1576432719,89,18.77,84.08,64.71,1.45
532,Kloulklubed,90,PW,1576432719,94,7.04,134.26,77.0,4.7
533,Ilhabela,41,BR,1576432719,80,-23.78,-45.36,79.3,15.41
534,Yebaishou,100,CN,1576432719,64,41.4,119.64,23.92,4.79
535,Kondinskoye,0,RU,1576432720,93,59.65,67.41,7.72,6.62
536,Guasdualito,56,VE,1576432720,74,7.24,-70.73,84.15,7.63
537,Gunjur,0,GM,1576432720,38,13.18,-16.76,87.8,9.17
538,Kutum,18,SD,1576432720,18,14.2,24.66,70.29,8.05
539,Liling,73,CN,1576432721,81,27.65,113.49,51.8,4.47
540,Mezen,100,RU,1576432721,95,65.85,44.24,22.55,10.42
541,Bhum,84,IN,1576432721,52,18.47,75.67,72.73,6.42
542,Pontianak,75,ID,1576432722,100,-0.02,109.34,75.2,1.99
543,Lwowek Slaski,100,PL,1576432722,83,51.11,15.59,46.0,5.01
544,Pickerington,90,US,1576432723,59,39.88,-82.75,34.0,6.93
545,Calatayud,91,ES,1576432723,71,41.35,-1.64,53.6,2.24
546,Madras,1,US,1576432723,65,44.63,-121.13,33.01,6.93
547,Kolosovka,58,RU,1576432723,96,56.47,73.61,-0.54,6.13
548,Sao Jose da Coroa Grande,0,BR,1576432724,77,-8.9,-35.15,80.55,14.9
549,Powell River,75,CA,1576432724,68,49.84,-124.52,39.99,1.25
550,Sarahan,39,IN,1576432724,60,31.51,77.79,10.15,8.95
551,Narsaq,0,GL,1576432724,47,60.91,-46.05,15.8,9.17
552,Ust-Nera,100,RU,1576432724,100,64.57,143.24,-36.33,2.66
553,Perpignan,90,FR,1576432725,87,42.7,2.88,55.0,0.58
554,Haines Junction,16,CA,1576432725,97,60.75,-137.51,6.71,2.26
555,Derzhavinsk,34,KZ,1576432726,90,51.1,66.31,4.78,4.65
556,Kandrian,64,PG,1576432726,90,-6.21,149.55,72.81,2.44
557,Araouane,0,ML,1576432726,7,18.9,-3.53,70.66,6.29
558,Waverly,1,US,1576432726,55,37.04,-77.1,57.99,12.75
559,Deputatskiy,88,RU,1576432726,95,69.3,139.9,-23.96,3.24
